amenity_key,google_type,place_id,name,lat,lon,types,vicinity,business_status
commercial_livestock,farm,ChIJTerHB_wQk4gRjTqoVuMHa-0,Alford,30.6938049,-85.3921505,locality|political,Alford,
commercial_livestock,farm,ChIJFSID8ZIQk4gRtOxDG8LOoW0,Compass Lake In the Hills,30.6068954,-85.38474269999999,rv_park|lodging|travel_agency|real_estate_agency|point_of_interest|establishment,"645 Compass Lake Drive, Alford",OPERATIONAL
commercial_livestock,farm,ChIJFSID8ZIQk4gRAiEy5Tm6RaY,Olle's Restaurant (by reservations only),30.6086567,-85.3848359,restaurant|food|point_of_interest|establishment,"645 Compass Lake Drive, Alford",OPERATIONAL
commercial_livestock,farm,ChIJ11pfO_cQk4gR5kAx529kDVY,Trading Post,30.5999079,-85.39136789999999,bar|point_of_interest|establishment,"464 Lakepoint Road, Alford",OPERATIONAL
commercial_livestock,farm,ChIJObSdYIgFk4gRNulal8QH9yo,Oakie Ridge Baptist Church,30.636762,-85.4904404,church|place_of_worship|point_of_interest|establishment,"2971 Gilberts Mill Road, Chipley",OPERATIONAL
commercial_livestock,farm,ChIJ4RRVgOICk4gRNGdyImea9XY,BACK TO BACK MEDICAL LLC,30.58745369999999,-85.4708642,point_of_interest|health|store|establishment,"417 Buckhorn Boulevard, Chipley",OPERATIONAL
commercial_livestock,farm,ChIJEaqpQfcQk4gR2VINGhmSUcs,Peoples Store at Compass Lake,30.5979994,-85.39196969999999,store|point_of_interest|establishment,"545 City Square Road, Alford",OPERATIONAL
commercial_livestock,farm,ChIJvyZGTPcQk4gRZC1YMWWgCbQ,Peoples Landing,30.59796579999999,-85.3918419,travel_agency|real_estate_agency|point_of_interest|establishment,"545 City Square Road, Alford",OPERATIONAL
commercial_livestock,farm,ChIJk6QC7zUbk4gReQktlAwKx_o,Cypress Creek Community Church,30.69957729999999,-85.4332275,church|place_of_worship|point_of_interest|establishment,"1772 Macedonia Road, Cottondale",OPERATIONAL
commercial_livestock,farm,ChIJySrJnRwGk4gREmcnFQNwfxc,LAB COUNTRY,30.64108000000001,-85.531993,point_of_interest|establishment,"2590 Schmidt Lane, Chipley",OPERATIONAL
commercial_livestock,farm,ChIJebDG_cAPk4gR-1qNVmCHf_g,Country Oaks Library & Learning,30.606588,-85.4557109,library|point_of_interest|establishment,"268 Quail Hollow Boulevard, Chipley",OPERATIONAL
commercial_livestock,farm,ChIJjxJ1j5cQk4gReYnaoLtoOc0,"Compass Lake Engineering, LLC",30.6182992,-85.37702689999999,point_of_interest|establishment,"719 White Drive, Alford",OPERATIONAL
commercial_livestock,farm,ChIJHyWmx3kFk4gRA9Kip9UuzNM,Manship's Trucking LLC,30.6413835,-85.4470771,point_of_interest|establishment,"243 Pike Pond Road, Chipley",OPERATIONAL
commercial_livestock,farm,ChIJ9UKAtQUPk4gRZMEE6p4sJT8,Green Acres,30.614508,-85.443665,point_of_interest|establishment,"198 Champion Drive, Chipley",OPERATIONAL
commercial_livestock,farm,ChIJR1uMYecPk4gRwVeacfZJAWw,Peaceful Pines FL,30.6095936,-85.44430030000001,lodging|travel_agency|real_estate_agency|point_of_interest|establishment,"3113 Tumble Creek Boulevard, Chipley",OPERATIONAL
commercial_livestock,farm,ChIJbycSjvYPk4gRg0EvQ9Gdk-M,Gilbert's Catfish Pond,30.6210549,-85.4750068,point_of_interest|establishment,"2854 Highview Circle, Chipley",OPERATIONAL
commercial_livestock,farm,ChIJebDG_cAPk4gRsnzwfxCR8Q8,Country Oaks Volunteer Fire,30.606588,-85.4557109,fire_station|point_of_interest|establishment,"268 Quail Hollow Boulevard, Chipley",OPERATIONAL
commercial_livestock,farm,ChIJtefca5kPk4gRT11Auq41oiQ,Spotless Pools,30.6150788,-85.4719815,general_contractor|point_of_interest|establishment,"2944 Highview Lane, Chipley",OPERATIONAL
commercial_livestock,farm,ChIJrZo0Aj8Rk4gRkWd5zzRdn0g,Rudd Family Farm,30.6220513,-85.4215658,point_of_interest|establishment,"JHCH+R9, Round Lake",OPERATIONAL
commercial_livestock,farm,ChIJ61lID2cak4gRWkfOf3QGGW0,Round Lake,30.651389,-85.38888899999999,locality|political,Round Lake,
commercial_livestock,farm,ChIJY502DU0Xk4gRFVPQ8wJAp4A,Compass Homes of NW Fl,30.616291,-85.35293399999999,general_contractor|point_of_interest|establishment,"679 Carver Circle, Alford",OPERATIONAL
commercial_livestock,farm,ChIJY_z9lvMm9hQRhyNMjqJ520I,South of Dixie Ranch,30.65901899999999,-85.2927349,food|point_of_interest|establishment,"3663 Laramore Road, Marianna",OPERATIONAL
commercial_livestock,farm,ChIJTV7j1IYYk4gRZ__ZB5BzXSs,Daniel S Adams - Aflac Insurance Agent,30.6754804,-85.27754499999999,insurance_agency|point_of_interest|establishment,"3857 Scott Church Road, Marianna",OPERATIONAL
commercial_livestock,farm,ChIJQ_Jc4n4ik4gRJDcQPsig1as,Bar L Citrus,30.6759377,-85.2695651,food|store|point_of_interest|establishment,"4141 Laramore Road, Marianna",OPERATIONAL
commercial_livestock,farm,ChIJeS0TVbIZk4gRtUBUmqFp5Uw,Cherokee Country Kennel,30.659601,-85.316288,point_of_interest|establishment,"1287 Fairview Road, Marianna",OPERATIONAL
commercial_livestock,farm,ChIJYzbWpMAik4gRwEKfMIvHMt8,Tag's Place,30.6296152,-85.2486696,point_of_interest|establishment,"891 Pittman Hill Road, Marianna",OPERATIONAL
commercial_livestock,farm,ChIJw3xn3vQXk4gRKgjxf7vxb_A,Garage Door Repair & More,30.6252671,-85.298716,point_of_interest|establishment,"3601 Tipaquan Street, Marianna",OPERATIONAL
commercial_livestock,farm,ChIJA9JN_UYYk4gRjHRWDaPu3h4,Master's Touch,30.653213,-85.300067,general_contractor|point_of_interest|establishment,"1193 Harvest Ridge, Marianna",OPERATIONAL
commercial_livestock,farm,ChIJKRTfv0YYk4gRw9DOAz4otKQ,The Pinnacle Church,30.6547714,-85.29942299999999,church|place_of_worship|point_of_interest|establishment,"1221 Dipper Road, Marianna",OPERATIONAL
commercial_livestock,farm,ChIJbWPmv0YYk4gRwVSNO-I5I24,Hickory Level Church,30.6547714,-85.29942299999999,church|place_of_worship|point_of_interest|establishment,"1221 Dipper Road, Marianna",OPERATIONAL
commercial_livestock,farm,ChIJT-lTPC4bk4gRIvtOjQVxnkc,McCormick Lake,30.6394747,-85.3284237,park|point_of_interest|establishment,Alford,OPERATIONAL
commercial_livestock,farm,ChIJb4EDYBIZk4gR0fLwC2d_gNY,A.S.A.P. Roofing of Walton County Inc,30.6579808,-85.3154351,point_of_interest|establishment,"Fairview Road, Marianna",OPERATIONAL
commercial_livestock,farm,ChIJlWdLYfEXk4gRH80iasbSKWU,WealthWise Financial Partners,30.6179457,-85.3360828,insurance_agency|finance|point_of_interest|establishment,"712 Deshutes Drive, Alford",OPERATIONAL
commercial_livestock,farm,ChIJndqRfQAZk4gRwFkUauPtetU,GregoryTeator,30.6394178,-85.3397517,point_of_interest|establishment,,OPERATIONAL
commercial_livestock,farm,ChIJh0GtFuMZk4gRNFNYREo4pxw,Jack's Painting & Pressure,30.6324041,-85.3432559,painter|point_of_interest|establishment,"915 Castle Circle, Alford",OPERATIONAL
commercial_livestock,farm,ChIJByS1Pq4Zk4gRJbbQ1hgIwVY,Pilgrim Rest Assembly of God,30.663864,-85.32035619999999,church|place_of_worship|point_of_interest|establishment,"3347 Pilgrim Rest Church Road, Marianna",OPERATIONAL
commercial_livestock,farm,ChIJoWxlUgAXk4gRhMVltacGunU,Compass Lake in the Hills Fire Dept Station 45,30.6202193,-85.3430782,point_of_interest|establishment,"3085 Nortek Boulevard, Alford",OPERATIONAL
commercial_livestock,farm,ChIJAwaGw4kYk4gRhxFQyWn6Moc,George Speers Masonry LLC,30.67367699999999,-85.286169,general_contractor|point_of_interest|establishment,"3709 Scott Church Road, Marianna",OPERATIONAL
commercial_livestock,farm,ChIJzaPmqdMXk4gRJcfwIK-HYwo,Econfina Creek Head Water,30.5867776,-85.3170284,point_of_interest|establishment,"10-2N-11-0000-0140-0000, Marianna",OPERATIONAL
commercial_livestock,farm,ChIJ1ZYm44Uik4gRBZwPbxmBoAw,Bar L Ranch,30.6659481,-85.2625999,point_of_interest|establishment,"1229 Bar L Ranch Road, Marianna",OPERATIONAL
commercial_livestock,farm,ChIJkUobL4YYk4gRIv6bSqZc8LQ,Scott Church,30.6760272,-85.28214969999999,church|place_of_worship|point_of_interest|establishment,Marianna,OPERATIONAL
commercial_livestock,farm,ChIJ_-uLTmANk4gRoUgkE7JYPHM,A to Z Handyman Remodeling,30.6089963,-85.3509892,general_contractor|point_of_interest|establishment,"593 Ocala Drive, Alford",OPERATIONAL
commercial_livestock,farm,ChIJURBFYl4Zk4gROT8MAtB3K9Y,Cherokee Satsumas,30.6771263,-85.3156447,point_of_interest|establishment,"1525 Fairview Road, Marianna",OPERATIONAL
commercial_livestock,farm,ChIJC_jc-IgYk4gRWtgzzFt83LE,James E. Lipford LittleLots Mobile Homes,30.67441029999999,-85.27512130000001,point_of_interest|establishment,"3870 Scott Church Road, Marianna",OPERATIONAL
commercial_livestock,farm,ChIJXfJMhxYXk4gR2fsaGxiUgxc,Silver Lake North,30.5813289,-85.31590369999999,lodging|point_of_interest|establishment,"270 Silver Lake North, Marianna",OPERATIONAL
commercial_livestock,farm,ChIJ8QQjcAARk4gRr9cABplkx4Q,Lake house,30.6068624,-85.3564172,point_of_interest|establishment,"563 McPherson Drive, Alford",OPERATIONAL
commercial_livestock,farm,ChIJQdFG9YUZk4gRo6la9IPAL-4,Mission Technologies Inc,30.6648183,-85.34842859999999,point_of_interest|establishment,"1348 Sleepy Hollow Drive, Marianna",OPERATIONAL
commercial_livestock,farm,ChIJ7zVZi8oQk4gRrEZqY3kgasU,Kratom Trading Co,30.6050519,-85.35723999999999,point_of_interest|establishment,"537 McPherson Drive, Alford",OPERATIONAL
commercial_livestock,farm,ChIJSen1XCoRk4gRzrEzZYttsZA,Tri-County Welding Services,30.61074849999999,-85.3624342,point_of_interest|establishment,"2850 Deer Run Circle, Alford",OPERATIONAL
commercial_livestock,farm,ChIJSyzatnYZk4gRL721sv4y-WA,Pine Ridge Church,30.6799161,-85.3404834,church|place_of_worship|point_of_interest|establishment,Marianna,OPERATIONAL
commercial_livestock,farm,ChIJu47A37AXk4gR03Rrf8IIAWE,Silver Oaks Farm,30.56878099999999,-85.32051799999999,lodging|point_of_interest|establishment,"3395 Seminole Lane, Marianna",OPERATIONAL
commercial_livestock,farm,ChIJC5J8JVgik4gRzPcUJ9WqL8k,J & P Fence,30.673256,-85.241714,general_contractor|point_of_interest|establishment,"1495 Lipford Road, Marianna",OPERATIONAL
commercial_livestock,farm,ChIJq1PF8tMbk4gRHpf-SQhpXAw,Mayo & Son Construction,30.6797616,-85.3606666,general_contractor|point_of_interest|establishment,"1578 Mill Road, Alford",OPERATIONAL
commercial_livestock,farm,ChIJy5j0CoARk4gR3LPzGax8iPM,Vulcan Mobile Welding and Fabrication LLC,30.629541,-85.3838342,point_of_interest|establishment,"856 Fairborn Avenue, Alford",OPERATIONAL
commercial_livestock,farm,ChIJ9S0iIgQRk4gRNUiX_s7HdcQ,Vulcan Boats,30.629541,-85.3838342,point_of_interest|establishment,"856 Fairborn Avenue, Alford",OPERATIONAL
commercial_livestock,farm,ChIJ057ISpojk4gRolkoLubjzSY,Punch's Auto Sales LLC,30.6855792,-85.24296559999999,car_dealer|store|point_of_interest|establishment,"4252 Laramore Road, Marianna",OPERATIONAL
commercial_livestock,farm,ChIJVY1nAOkQk4gR2J3Tg4MsK-E,Professional Surveyor & Mapper,30.598923,-85.3782558,point_of_interest|establishment,"2668 Mona Lane, Alford",OPERATIONAL
commercial_livestock,farm,ChIJEe-QewARk4gRurvcchbgTc0,Cool yellow building,30.596544,-85.3773033,store|point_of_interest|establishment,"Somewhere Lane, Alford",OPERATIONAL
commercial_livestock,farm,ChIJ0cxDwIURk4gRHaSBAzqHN8w,Lake House,30.59781499999999,-85.378866,point_of_interest|establishment,"437 Lakeshore Drive, Alford",OPERATIONAL
commercial_livestock,farm,ChIJTc4S8NsRk4gRCmbe4Zclv18,Compass Lake cabins,30.6079126,-85.3841272,lodging|point_of_interest|establishment,Alford,OPERATIONAL
commercial_livestock,farm,ChIJDTvZIngRk4gR-LHjtB9A3Es,Freeman's TCB English Mastiffs,30.6106633,-85.3851653,point_of_interest|establishment,"612 Kokomo Avenue, Alford",OPERATIONAL
commercial_livestock,farm,ChIJo7IVP44Qk4gRt5J0kNNpd5w,Compass Lake Fire Tower,30.6149159,-85.3871492,fire_station|point_of_interest|establishment,Alford,OPERATIONAL
commercial_livestock,farm,ChIJz5YoSFoRk4gRYNB4Q_gaOPA,Compass Lake at Compass Lake in the Hills,30.6064905,-85.3846636,park|point_of_interest|establishment,"533 Lookout Lane, Alford",OPERATIONAL
commercial_livestock,farm,ChIJxRT4le4Qk4gRQJVPS0WbL1o,Dothan Boat Club,30.6004459,-85.3820837,point_of_interest|establishment,"2576-2600 Lakeview Circle, Alford",OPERATIONAL
commercial_livestock,farm,ChIJqTg9940Zk4gRwjaxcM74Jx0,Ebenezer Missionary Baptist Church,30.7038961,-85.33214799999999,church|place_of_worship|point_of_interest|establishment,"3169 Gardenview Road, Cottondale",OPERATIONAL
commercial_livestock,farm,ChIJ2cgt3KIRk4gRrS6cKo7JxqQ,The Cove at Compass Lake,30.60675749999999,-85.3877162,restaurant|food|point_of_interest|establishment,"566 Lakepoint Road, Alford",OPERATIONAL
commercial_livestock,farm,ChIJX_6btz4bk4gRR8nccaVdt8Q,Round Lake,30.6514428,-85.3889035,park|point_of_interest|establishment,"U.S. 231, Alford",OPERATIONAL
commercial_livestock,farm,ChIJfXCTvfIbk4gRVVGUs4kR0xM,JS Wilen LLC,30.6381984,-85.39350639999999,general_contractor|point_of_interest|establishment,"995 Highlands Circle, Alford",OPERATIONAL
commercial_livestock,farm,ChIJZ4o9kGA6k4gRJISnb8DjDpA,Altha,30.5704721,-85.12714419999999,locality|political,Altha,
commercial_livestock,farm,ChIJ4wt38wwvk4gRy5fkfg5YwEw,Folsom Airstrip-2FL3,30.669009,-85.083472,airport|point_of_interest|establishment,"6155 Rocky Creek Road, Marianna",OPERATIONAL
commercial_livestock,farm,ChIJUZ9RS_U6k4gRW-2xslenVpg,Dollar General,30.5765699,-85.1277176,drugstore|convenience_store|grocery_or_supermarket|food|store|health|point_of_interest|establishment,"26014 North Main Street, Altha",OPERATIONAL
commercial_livestock,farm,ChIJsyPcjvEkk4gRnLtSMVABW6g,Dolomite Inc,30.6603417,-85.1652754,general_contractor|point_of_interest|establishment,"1321 Florida 71, Marianna",OPERATIONAL
commercial_livestock,farm,ChIJ4_iHVyslk4gRfBD_D4fufqk,Kim Stone Photography,30.6221213,-85.1424876,point_of_interest|establishment,"5465 Alliance Road, Marianna",OPERATIONAL
commercial_livestock,farm,ChIJUdF7QMw6k4gRZSb_7A48XNU,Alliance Hill RV Resort,30.6163139,-85.13119499999999,rv_park|lodging|point_of_interest|establishment,"639 Plymouth Loop, Marianna",OPERATIONAL
commercial_livestock,farm,ChIJRQOjb_I6k4gRNDOwYMTBdmo,Oglesby plant international Tissue culture Labs,30.5856483,-85.1297931,point_of_interest|establishment,"26664 Florida 71, Altha",OPERATIONAL
commercial_livestock,farm,ChIJo_rPVPU6k4gRICRjbhkSnNI,United States Postal Service,30.5755125,-85.1276305,post_office|finance|point_of_interest|establishment,"25934 North Main Street, Altha",OPERATIONAL
commercial_livestock,farm,ChIJdzhbB2A6k4gRjSk3hVctSWs,Ellis Agency,30.5728811,-85.127406,insurance_agency|point_of_interest|establishment,"25744 North Main Street, Altha",OPERATIONAL
commercial_livestock,farm,ChIJH3MKa146k4gRsX0TzT_oW4o,First Baptist Church of Altha,30.5705662,-85.1286478,church|place_of_worship|point_of_interest|establishment,Altha,OPERATIONAL
commercial_livestock,farm,ChIJLf4G4l86k4gR9F9IPCVZkVE,Chevron,30.5699481,-85.12752259999999,gas_station|convenience_store|car_repair|food|store|point_of_interest|establishment,"25552 Main Street, Altha",OPERATIONAL
commercial_livestock,farm,ChIJd2H2_V86k4gR8vksHrh7xrY,Eagleston Enterprises Inc.,30.56698699999999,-85.12754199999999,electronics_store|store|point_of_interest|establishment,"25354 Main Street, Altha",OPERATIONAL
commercial_livestock,farm,ChIJZYAi4zMkk4gRxtxG-SE3594,Hinson Woodworks Inc,30.697336,-85.152929,general_contractor|point_of_interest|establishment,"5336 Rocky Creek Road, Marianna",OPERATIONAL
commercial_livestock,farm,ChIJr9NSVfU6k4gR3VymeNYCEtw,Smith's Supermarket,30.5743344,-85.1277817,grocery_or_supermarket|supermarket|food|store|point_of_interest|establishment,"25868 North Main Street, Altha",OPERATIONAL
commercial_livestock,farm,ChIJr5vOtGM6k4gRQ_GcTS_xjCQ,Waldroff Mini Storage,30.5719612,-85.1210722,storage|point_of_interest|establishment,"16135 NE Waldroff Lane, Altha",OPERATIONAL
commercial_livestock,farm,ChIJSdvU5zokk4gREOQy35z2JE0,Great Rate Tree Service LLC,30.700929,-85.160263,point_of_interest|establishment,"5243 Rocky Creek Road, Marianna",OPERATIONAL
commercial_livestock,farm,ChIJl9PTHxIkk4gR4938m8C8xiA,Bontrager Whitetails,30.6970609,-85.17976139999999,park|point_of_interest|establishment,"5004 Bontrager Lane, Marianna",OPERATIONAL
commercial_livestock,farm,ChIJRfGAs8wvk4gRtnlE9OtwUmo,"Landmark Fine Homes, Inc",30.6346184,-85.0649615,point_of_interest|establishment,"6310 Birchwood Road, Marianna",OPERATIONAL
commercial_livestock,farm,ChIJZ4WbrnE8k4gRebKmYSGAKck,F L Auto Fastener,30.56159349999999,-85.1968709,car_repair|store|point_of_interest|establishment,"24968 Northwest Ruscito Lane, Altha",OPERATIONAL
commercial_livestock,farm,ChIJB-j54dw6k4gRi5ehXhP38rM,Cox,30.60139,-85.1391699,locality|political,Cox,
commercial_livestock,farm,ChIJpZyHHDQvk4gR0SiRvL3ROGk,Tim & Son Tire Repair & Such,30.70382859999999,-85.1847216,car_repair|point_of_interest|store|establishment,"1910 Florida 71, Marianna",OPERATIONAL
commercial_livestock,farm,ChIJz-sJaWA6k4gRkgu25KPKIlM,Altha Public High School,30.5732222,-85.1261375,secondary_school|school|point_of_interest|establishment,"25820 Fuqua Circle, Altha",OPERATIONAL
commercial_livestock,farm,ChIJyYBPp8Ekk4gRGDYMnze0GgI,Arcosa Aggregates - Marianna,30.6375749,-85.16889259999999,point_of_interest|establishment,"5160 Vermont Road #7473, Marianna",OPERATIONAL
commercial_livestock,farm,ChIJZ4dICuw6k4gReA94rP72WdQ,GreenPoint Ag,30.592339,-85.131321,food|point_of_interest|establishment,"15527 Northeast Mount Olive Cemt Road, Altha",OPERATIONAL
commercial_livestock,farm,ChIJ0WOFYoklk4gRfQpHCxNaQ3s,Lipford painting,30.622435,-85.151522,point_of_interest|establishment,"5323 Alliance Road, Marianna",OPERATIONAL
commercial_livestock,farm,ChIJoRjCzVslk4gRgk4aY5RWjvg,Twins mobile home park,30.6343364,-85.15861509999999,point_of_interest|establishment,"953 Florida 71, Marianna",OPERATIONAL
commercial_livestock,farm,ChIJC4eAEjklk4gRkshycpzUv5o,Doublewide INC,30.6346519,-85.1591369,point_of_interest|establishment,"5261 Twin Lane, Marianna",OPERATIONAL
commercial_livestock,farm,ChIJr1Y_6Mskk4gROa4UxQlEot0,Launch Point,30.6272956,-85.1647067,point_of_interest|establishment,Marianna,OPERATIONAL
commercial_livestock,farm,ChIJ3wzV9OIkk4gR6k7Tc1X4hQE,Panhandle Excavating Inc,30.6535696,-85.1492407,general_contractor|point_of_interest|establishment,"5294 Suncrest Road, Marianna",OPERATIONAL
commercial_livestock,farm,ChIJq0PyAt86k4gRD5kqPpMLbl0,North Florida Transport,30.602158,-85.145438,moving_company|point_of_interest|establishment,"14569 Northwest Sam Duncan Road, Altha",OPERATIONAL
commercial_livestock,farm,ChIJ71kH9MU7k4gReM01PdMqs_M,Mt. Olive Baptist Church of Alliance,30.6187001,-85.11217359999999,church|place_of_worship|point_of_interest|establishment,"5779 Hansford Road, Marianna",OPERATIONAL
commercial_livestock,farm,ChIJcRe8yog7k4gR837PKe1cq_A,Two Eyes Ranch,30.602638,-85.1770984,point_of_interest|establishment,"508 Florida 73, Marianna",OPERATIONAL
commercial_livestock,farm,ChIJHeyonyg7k4gRNKFxJF2bGxA,Peacock Farms Trucking,30.6104083,-85.1134038,point_of_interest|establishment,"656 Dowling Road, Marianna",OPERATIONAL
commercial_livestock,farm,ChIJf6NNagU7k4gRUPoAYvl3S4w,"Oglesby Plants International, Inc.",30.5881861,-85.1411066,point_of_interest|establishment,"15168 Northwest Oglesby Road, Altha",OPERATIONAL
commercial_livestock,farm,ChIJjdY5_Kc6k4gREe7A6_4-dwE,Beauchamp Farms,30.608523,-85.106831,point_of_interest|establishment,"630 Redlevel Loop, Marianna",OPERATIONAL
commercial_livestock,farm,ChIJz3iJOWQ7k4gRFk-HVca6bsU,Pledger Electrical Heating & Air,30.5932387,-85.1824223,general_contractor|point_of_interest|establishment,"399 Florida 73, Marianna",OPERATIONAL
commercial_livestock,farm,ChIJK0lhnPE6k4gR_CG_bK4QimE,City Ball Park and Recreation,30.5846164,-85.13302619999999,park|point_of_interest|establishment,"nw, 15727 Bodiford Road, Altha",OPERATIONAL
commercial_livestock,farm,ChIJk61O-YUvk4gRNg2POlvQTFE,Millie Bee Farm,30.6547224,-85.1009007,point_of_interest|establishment,"1209 Beauchamp Farm Road, Marianna",OPERATIONAL
commercial_livestock,farm,ChIJL5cmtucjk4gRjqLYRLhIs5g,Palm Island Campsite,30.66010000000001,-85.1952,campground|lodging|park|point_of_interest|establishment,Marianna,OPERATIONAL
commercial_livestock,farm,ChIJm7iozvQ6k4gRKNEZ9N2JJFk,Bumper To Bumper/Altha Auto Parts,30.5789903,-85.1275318,car_repair|point_of_interest|store|establishment,"26178 Florida 71, Altha",OPERATIONAL
commercial_livestock,farm,ChIJb7x6cIQlk4gR5B5OVq-DXCg,Evergreen Church,30.6740346,-85.11245989999999,church|place_of_worship|point_of_interest|establishment,"5781 Mockingbird Road, Marianna",OPERATIONAL
commercial_livestock,farm,ChIJO9aQVwAlk4gR3nZOeY3I1WE,Rubber fruitstand,30.6807177,-85.1743145,point_of_interest|establishment,"1606 Florida 71, Marianna",OPERATIONAL
commercial_livestock,farm,ChIJP6_YYYI8k4gRv5gqkU44tDE,Hasty Pond Church,30.5860273,-85.19047940000002,church|place_of_worship|point_of_interest|establishment,Marianna,OPERATIONAL
commercial_livestock,farm,ChIJqfLmxZo7k4gRM7pIMp0967M,FedEx OnSite,30.5766096,-85.12770669999999,point_of_interest|establishment,"26014 North Main Street, Altha",OPERATIONAL
commercial_livestock,farm,ChIJVVXFN_U6k4gR27d-9ZbXbuc,Redbox,30.5765699,-85.1277176,movie_rental|store|point_of_interest|establishment,"26014 North Main Street, Altha",OPERATIONAL
commercial_livestock,farm,ChIJs6JJPGE6k4gRmCU9_1O6cD4,Altha Church of God,30.57631579999999,-85.12451589999999,church|place_of_worship|point_of_interest|establishment,"26000 Fuqua Circle, Altha",OPERATIONAL
commercial_livestock,farm,ChIJd2H2_V86k4gRzlTB0cfL1f8,Altha Police Department,30.57504699999999,-85.1277174,police|point_of_interest|establishment,"25886 North Main Street, Altha",OPERATIONAL
commercial_livestock,farm,ChIJtTpwQwslk4gRYJU8-XlBBws,Pro-Mow Lawn Care & Landscaping,30.6894888,-85.14737009999999,point_of_interest|establishment,"5386 Sonic Drive, Marianna",OPERATIONAL
commercial_livestock,farm,ChIJ5UCm8lQlk4gR4CIVtTCZ-JE,WATFORD LAND SERVICES,30.6902431,-85.1471464,general_contractor|point_of_interest|establishment,"1733 Delta Lane, Marianna",OPERATIONAL
commercial_livestock,farm,ChIJq6qqbmA6k4gRp-L9mcXFSao,Altha Public School Old Gym,30.5732398,-85.1262181,gym|health|point_of_interest|establishment,"25820 NE, Fuqua Circle, Altha",OPERATIONAL
commercial_livestock,farm,ChIJbeF5QgA7k4gRTM11oKf4DRY,Future Breeze Systems,30.5721891,-85.12743569999999,point_of_interest|establishment,"25708 Main Street, Altha",OPERATIONAL
commercial_livestock,farm,ChIJmaS7R1kwk4gRXNFASJne-2k,Altha Public Library,30.5699707,-85.13637200000001,library|point_of_interest|establishment,"15225 County Road 274, Altha",OPERATIONAL
commercial_livestock,farm,ChIJEcUAwjI7k4gRHVK3xRgmWGc,Tipton & Son,30.57133799999999,-85.12960199999999,point_of_interest|establishment,"15620 Northwest Broad Street, Altha",OPERATIONAL
commercial_livestock,farm,ChIJCZ-QE2E6k4gR6HfZY1rQcV4,Altha Fire Department,30.5709359,-85.12817249999999,fire_station|point_of_interest|establishment,"Broad Street, Altha",OPERATIONAL
commercial_livestock,farm,ChIJA5pQZ8clk4gRc6k-Gn4Nbks,Rocky Creek Baptist Church,30.69044760000001,-85.1337197,church|place_of_worship|point_of_interest|establishment,"5458 Rocky Creek Road, Marianna",OPERATIONAL
commercial_livestock,farm,ChIJM087cqs7k4gRvaD7tsnqsSg,Hunt Brothers Pizza,30.5709437,-85.126952,restaurant|food|point_of_interest|establishment,"25653 Florida 71, Altha",OPERATIONAL
commercial_livestock,farm,ChIJfYB9IF46k4gR6iPLvwYzGdU,Jc's Convenience Store,30.5709437,-85.126952,convenience_store|food|store|point_of_interest|establishment,"25653 Florida 71, Altha",OPERATIONAL
commercial_livestock,farm,ChIJeV_p4Fg6k4gR5T5UF35GFMw,Altha Church God Day Care,30.5696961,-85.13162349999999,point_of_interest|establishment,"25545 5th Street, Altha",OPERATIONAL
commercial_livestock,farm,ChIJKczaH146k4gRMT7ZtmXKAhU,Waldorff Ace Hardware,30.5708018,-85.12698809999999,hardware_store|home_goods_store|store|point_of_interest|establishment,"25615 North Main Street, Altha",OPERATIONAL
commercial_livestock,farm,ChIJ36uJFjUkk4gRRJpHzmzysfM,Woods and Sons Air Conditioning and Heating LLC,30.6926358,-85.14950569999999,general_contractor|point_of_interest|establishment,"5364 Turk Road, Marianna",OPERATIONAL
commercial_livestock,farm,ChIJYRlMM_krk4gRlNttxdEbitY,Grand Ridge,30.71287899999999,-85.020203,locality|political,Grand Ridge,
commercial_livestock,farm,ChIJKcvBnbUtk4gRowbCpf4ynYI,Shady Grove Pentecostal,30.6592193,-85.00163080000002,church|place_of_worship|point_of_interest|establishment,"7541 Shady Grove Road, Grand Ridge",OPERATIONAL
commercial_livestock,farm,ChIJqW3wzbktk4gRhiWdxSomCpY,Shady Grove Methodist Church,30.65273689999999,-84.9957709,church|place_of_worship|point_of_interest|establishment,"7305 Birchwood Road, Grand Ridge",OPERATIONAL
commercial_livestock,farm,ChIJpRjFFKAtk4gRjkmFm85f-5s,Sneads Weigh Station Westbound,30.6398445,-84.9828459,point_of_interest|establishment,"7370 Florida 10, Grand Ridge",OPERATIONAL
commercial_livestock,farm,ChIJq2Cg37Atk4gR-rm5GiceX4I,Ken's trucking,30.6491818,-85.00430159999999,point_of_interest|establishment,"7213 Birchwood Road, Grand Ridge",OPERATIONAL
commercial_livestock,farm,ChIJTVxVx6gtk4gROnNJ3NkfiiA,Basford Farms,30.6501035,-84.9879316,food|point_of_interest|establishment,"1212 Spivey Road, Grand Ridge",OPERATIONAL
commercial_livestock,farm,ChIJyU3iO2Iuk4gRfbH2SWoQ8_k,Marathon Gas,30.6608263,-85.03791369999999,gas_station|point_of_interest|establishment,"1342 Florida 69, Grand Ridge",OPERATIONAL
commercial_livestock,farm,ChIJwY79sp8uk4gRPenU1QyOrOg,American Tower Corporation,30.6830901,-85.0254118,point_of_interest|establishment,"1439 Florida 69, Grand Ridge",OPERATIONAL
commercial_livestock,farm,ChIJA-e7J58uk4gRYdDREyJiiR0,Clarks Well Drilling LLC,30.682887,-85.0281572,general_contractor|point_of_interest|establishment,"1650 Florida 69, Grand Ridge",OPERATIONAL
commercial_livestock,farm,ChIJWwccV_cuk4gR768OA3vuq1A,Creekwater Crafts & Collectibles,30.669319,-85.054298,store|point_of_interest|establishment,"1462 Blount Road, Grand Ridge",OPERATIONAL
commercial_livestock,farm,ChIJ-ai299Ayk4gRhjSxgYbY1rQ,Gregory House,30.5767849,-84.94872989999999,point_of_interest|establishment,United States,OPERATIONAL
commercial_livestock,farm,ChIJYU_CbM0sk4gRxvXzM5n55V4,Just Parking LLC Parking Lot Striping & SealCoating,30.6728068,-84.9409539,general_contractor|point_of_interest|establishment,"1494 Sand Basin Road, Grand Ridge",OPERATIONAL
commercial_livestock,farm,ChIJz1ORR_cxk4gR0WXblhjjIss,Ocheesee Creamery,30.6048088,-85.02897639999999,store|food|point_of_interest|establishment,"28367 Florida 69, Grand Ridge",OPERATIONAL
commercial_livestock,farm,ChIJ2zOScAotk4gRb5gtTTgbiP8,545 branch rd Baxley ga 31513,30.6328184,-84.98929079999999,point_of_interest|establishment,"949 Saint Rose Road, Grand Ridge",OPERATIONAL
commercial_livestock,farm,ChIJuRjUfJstk4gRC3SbRvv0s3g,Cml Trucking,30.6254,-84.986981,moving_company|point_of_interest|establishment,"898 Saint Rose Road, Grand Ridge",OPERATIONAL
commercial_livestock,farm,ChIJCSlS858tk4gRweX74reak6k,I-10 Parking,30.63807779999999,-84.9830346,parking|point_of_interest|establishment,"Interstate 10, Grand Ridge",OPERATIONAL
commercial_livestock,farm,ChIJXTpeG6Atk4gRAWT3oFtOpt8,Sneads Weigh Station Eastbound,30.6388236,-84.9824821,point_of_interest|establishment,Grand Ridge,OPERATIONAL
commercial_livestock,farm,ChIJRUXXBqAtk4gR71QuYWUHVd0,I Lee Ln Parking,30.6388299,-84.98193409999999,parking|point_of_interest|establishment,"I Lee Ln, Grand Ridge",OPERATIONAL
commercial_livestock,farm,ChIJKVTgtqHU7IgROXQH1v222tE,Sneads,30.707692,-84.9243663,locality|political,Sneads,
commercial_livestock,farm,ChIJbbRMn-4tk4gRELLx2xbVOxY,Southern Comfort Protecting Tradition,30.64795999999999,-85.00477409999999,store|point_of_interest|establishment,"1174 Branch Lane, Grand Ridge",OPERATIONAL
commercial_livestock,farm,ChIJmUDOWAAtk4gRtGCsBgSAOEQ,Shady Grove Baptist Church,30.652831,-84.9968875,church|place_of_worship|point_of_interest|establishment,"7304 Birchwood Road, Grand Ridge",OPERATIONAL
commercial_livestock,farm,ChIJfU9uCzotk4gRbZ3eyBSTlhw,Melissa & Tracy's Customization's,30.643164,-84.976654,clothing_store|store|point_of_interest|establishment,"1113 Ocheesee Landing Road, Grand Ridge",OPERATIONAL
commercial_livestock,farm,ChIJj0_nGd8vk4gROCj2I_lnTPQ,Dudley Farms,30.6303313,-85.03087719999999,point_of_interest|establishment,"927 Florida 69, Grand Ridge",OPERATIONAL
commercial_livestock,farm,ChIJpTTOyAgtk4gRaJsXtiL0vx0,Jackson Tommy,30.64795699999999,-84.977085,point_of_interest|establishment,"1194 Jackson Farm Road, Grand Ridge",OPERATIONAL
commercial_livestock,farm,ChIJfZOc1oAyk4gRCrwJplA5wBE,St Rose Ame Church,30.6098351,-84.97929610000001,church|place_of_worship|point_of_interest|establishment,"660 Holmes Court, Grand Ridge",OPERATIONAL
commercial_livestock,farm,ChIJQ7tfRaotk4gR9rVQvJ7zYzc,J's Handyman Service,30.6568295,-84.9965758,general_contractor|point_of_interest|establishment,"7585 Shady Grove Road, Grand Ridge",CLOSED_TEMPORARILY
commercial_livestock,farm,ChIJKzbHVLszk4gRSEfpTfcdXAI,St Mary AME,30.60946149999999,-84.9791803,church|place_of_worship|point_of_interest|establishment,"660 Saint Rose Road, Grand Ridge",OPERATIONAL
commercial_livestock,farm,ChIJT4x4I6wtk4gRm_8vEnZ0Yho,Jackson Farms,30.6563301,-84.9898529,grocery_or_supermarket|food|store|point_of_interest|establishment,"7681 Shady Grove Road, Grand Ridge",OPERATIONAL
commercial_livestock,farm,ChIJrwiROh8tk4gRjWLw-O4mj20,Pro Cleaning Services,30.65785470000001,-84.9992577,point_of_interest|establishment,"7548 Shady Grove Road, Grand Ridge",OPERATIONAL
commercial_livestock,farm,ChIJsYrWM0sxk4gR5GiIV6XQK4s,Yoder Field,30.607616,-85.02878419999999,airport|point_of_interest|establishment,Grand Ridge,OPERATIONAL
commercial_livestock,farm,ChIJmTn3qXUzk4gRT-maM5sgC18,Aromas Del Caribe,30.612404,-84.96633899999999,clothing_store|store|point_of_interest|establishment,"698 Ocheesee Landing Road, Grand Ridge",OPERATIONAL
commercial_livestock,farm,ChIJRYoMszMtk4gRPR2LfpOzUaw,Quality Seamless Rain Gutters Inc.,30.6501326,-84.967143,point_of_interest|establishment,"7943 Shady Grove Road, Grand Ridge",OPERATIONAL
commercial_livestock,farm,ChIJb_mUR_cxk4gR2zpj88Nh_AI,Shady Nook Farm,30.604401,-85.02780299999999,point_of_interest|establishment,"28367 Florida 69, Grand Ridge",OPERATIONAL
commercial_livestock,farm,ChIJ-fBi9Dgvk4gRBnkHVQtjEt4,Raylene Reserve,30.6281719,-85.0406804,point_of_interest|establishment,"6653 Raylene Road, Grand Ridge",OPERATIONAL
commercial_livestock,farm,ChIJK6AyEwMtk4gRX5ah0AqLJYE,Ocheesee Pond Landing,30.65673859999999,-84.9730981,park|point_of_interest|establishment,"Ocheesee Pond, Florida 32442, Grand Ridge",OPERATIONAL
commercial_livestock,farm,ChIJ4cmLh5z07IgR-aryI0mCxdA,Bush Cycles Service,30.5941199,-84.9876961,car_repair|point_of_interest|establishment,"25543 County Road 286, Grand Ridge",OPERATIONAL
commercial_livestock,farm,ChIJCx07I2kuk4gROJj_WwLaJmI,New Beginning Worship Center,30.6474913,-85.03929389999999,church|place_of_worship|point_of_interest|establishment,"1165 Florida 69, Grand Ridge",OPERATIONAL
commercial_livestock,farm,ChIJt6So4xgtk4gRhdKJ_2buHmM,Mc Pherson Pest Control,30.652969,-84.963347,point_of_interest|establishment,"7979 Shady Grove Road, Grand Ridge",OPERATIONAL
commercial_livestock,farm,ChIJ2cmPSHQzk4gRU4P68ZKbGLs,Ocheesee Park,30.5960475,-84.9775717,park|point_of_interest|establishment,,OPERATIONAL
commercial_livestock,farm,ChIJsbUhTYoJfCIR4Q3ys5CdhBs,Rhodes Camper Rental & Transport,30.6142817,-84.9584466,point_of_interest|establishment,"701 Blueberry Drive, Grand Ridge",OPERATIONAL
commercial_livestock,farm,ChIJeZemjMUvk4gRKfDd5yEPIrY,Yeatmans Tree Service,30.6501203,-85.03947470000001,point_of_interest|establishment,"1179 Florida 69, Grand Ridge",OPERATIONAL
commercial_livestock,farm,ChIJS0Y_-u8FaSQROaZMdrnMmEY,"ENFINGER PLUMBING COMPANY, Inc",30.62945779999999,-84.94815799999999,plumber|point_of_interest|establishment,"890 Blueberry Drive, Grand Ridge",OPERATIONAL
commercial_livestock,farm,ChIJ-ZyYVQAvk4gRHvWrU8-6mj0,Grand Ridge Food Center,30.6608321,-85.0377184,convenience_store|food|point_of_interest|store|establishment,"1342 Florida 69, Grand Ridge",OPERATIONAL
commercial_livestock,farm,ChIJ_21ZNWUvk4gRVX0L31Lopgs,Krispy Krunchy Chicken,30.6613023,-85.037617,restaurant|food|point_of_interest|establishment,"1348 Florida 69, Grand Ridge",OPERATIONAL
commercial_livestock,farm,ChIJ1XcEbgAvk4gR3VK-XOTZd7w,Grand Ridge Mart,30.66129770000001,-85.0376612,convenience_store|food|point_of_interest|store|establishment,"1349 Florida 69, Grand Ridge",OPERATIONAL
commercial_livestock,farm,ChIJK0bL_rwrk4gR6Er9UXPgyJg,Keller Veterinary Services - By Appointment Only,30.6228723,-85.0518407,veterinary_care|point_of_interest|establishment,"810 Braswell Road, Grand Ridge",OPERATIONAL
commercial_livestock,farm,ChIJDXeLwnMvk4gRLpUuLexaaCU,Handi Mart #12 / Krispy Chicken,30.66130989999999,-85.03786989999999,restaurant|food|point_of_interest|establishment,"1348 Florida 69, Grand Ridge",OPERATIONAL
commercial_livestock,farm,ChIJIWQWN2Iuk4gRRglObQiwvRQ,ARCO,30.6612994,-85.0378862,gas_station|point_of_interest|establishment,"1348 Florida 69, Grand Ridge",OPERATIONAL
commercial_livestock,farm,ChIJAQDALzouk4gRm3QEDF9fsPI,Walters Cemetery,30.6347618,-85.05249069999999,cemetery|point_of_interest|establishment,"6533 Waldroff Cemetery Road, Grand Ridge",OPERATIONAL
commercial_livestock,farm,ChIJ-1hhYyUtk4gROSoiWV69S20,Yon Cemetery,30.6507328,-84.9512101,cemetery|point_of_interest|establishment,Grand Ridge,OPERATIONAL
commercial_livestock,farm,ChIJcZ-75dktk4gRZzNTX6VJ5Lc,On Point Well Service LLC,30.6753687,-84.97702009999999,point_of_interest|establishment,"1590 Redfield Lane, Grand Ridge",OPERATIONAL
commercial_livestock,farm,ChIJI5a5nzcyk4gR1rIFEitPbWc,Fisherman's Bait & Tackle Shop,30.5806252,-85.0050567,point_of_interest|store|establishment,"26177 County Road 286, Blountstown",OPERATIONAL
commercial_livestock,farm,ChIJx6yeT88tk4gR9o2FcdiAYsQ,Branch Family Farms,30.6823171,-85.0081414,point_of_interest|establishment,"7194 Shady Grove Road, Grand Ridge",OPERATIONAL
commercial_livestock,farm,ChIJGQrhETMvk4gRUHGsCCbIFSA,Antioch Baptist Church,30.632754,-85.0640009,church|place_of_worship|point_of_interest|establishment,"6334 Birchwood Road, Marianna",OPERATIONAL
commercial_livestock,farm,ChIJI0-RVAEsk4gRyjnO9M1qqHA,Wright's Recycling,30.7031391,-85.01780219999999,point_of_interest|establishment,"1928 Edenfield Drive, Grand Ridge",OPERATIONAL
commercial_livestock,farm,ChIJ0xMT-s3S7IgRVvL-gAOXwuU,Fibco Inc,30.6474056,-84.935211,general_contractor|point_of_interest|establishment,"1180 Blueberry Drive, Sneads",OPERATIONAL
commercial_livestock,farm,ChIJ9S4N5uQvk4gR1iQLeUTR5KE,Hillside Church,30.67830069999999,-85.0386875,church|place_of_worship|point_of_interest|establishment,"6687 Brushey Pond Road, Grand Ridge",OPERATIONAL
commercial_livestock,farm,ChIJZ1GHPAIvk4gRsqxpiDJX4Xs,AnnaLee Cleaning Services LLC,30.6836292,-85.0302833,point_of_interest|establishment,"1663 Tobe Way, Grand Ridge",OPERATIONAL
commercial_livestock,farm,ChIJa7y5pSrT7IgR5CjE_bfKmJI,Mill Springs Church,30.6599852,-84.9399286,church|place_of_worship|point_of_interest|establishment,"Mill Springs Road, Grand Ridge",OPERATIONAL
auto_repair_station,car_repair,ChIJh4Is4InR7IgRfFGw6dnChWA,Ricky's Auto & Salvage,30.652936,-84.82095629999999,car_repair|point_of_interest|establishment,"114 Annie B Jackson Lane, Chattahoochee",OPERATIONAL
auto_repair_station,car_repair,ChIJwytWN67R7IgRekXncr2lre8,dawkins Window Tinting,30.6748949,-84.8388521,car_repair|point_of_interest|establishment,"156 Jones Street, Chattahoochee",OPERATIONAL
auto_repair_station,car_repair,ChIJHck4vZXX7IgRdECd83MX6xM,R Johnson Automotive LLC,30.7051216,-84.84820010000001,car_repair|point_of_interest|establishment,"510 West Washington Street, Chattahoochee",OPERATIONAL
auto_repair_station,car_repair,ChIJqwk9V6zW7IgRh2CIgpiU93U,Pippin's Tire & Auto Services,30.705226,-84.849513,car_repair|store|point_of_interest|establishment,"616 West Washington Street #1314, Chattahoochee",OPERATIONAL
commercial_livestock,farm,ChIJPZd75TbR7IgRSzZtdJ2RF_0,Chattahoochee,30.7051916,-84.8429759,locality|political,Chattahoochee,
commercial_livestock,farm,ChIJt26fkrPW7IgROpMnWyc9NmM,Florida State Hospital,30.70722809999999,-84.8429142,point_of_interest|establishment,"100 North Main Street, Chattahoochee",OPERATIONAL
commercial_livestock,farm,ChIJ9cdhdq3W7IgRsHH_UwJyBys,Subway,30.7047062,-84.8473083,meal_takeaway|restaurant|food|point_of_interest|establishment,"411 West Washington Street, Chattahoochee",OPERATIONAL
commercial_livestock,farm,ChIJN8pvgK3W7IgRen-wSOA_ifc,Dollar General,30.70463389999999,-84.8425026,drugstore|convenience_store|grocery_or_supermarket|food|store|health|point_of_interest|establishment,"24 West Washington Street, Chattahoochee",OPERATIONAL
commercial_livestock,farm,ChIJAcdhK0vR7IgRePdKqWXPqU0,Marathon,30.6135218,-84.8208279,gas_station|atm|convenience_store|liquor_store|finance|food|store|point_of_interest|establishment,"1604 Flat Creek Road, Chattahoochee",OPERATIONAL
commercial_livestock,farm,ChIJlen3iCnQ7IgRuBjI83TGt1c,Flat Creek Family Campground & RV Park,30.6091227,-84.810003,rv_park|campground|lodging|park|point_of_interest|establishment,"2309 Flat Creek Road, Chattahoochee",OPERATIONAL
commercial_livestock,farm,ChIJSUO9oj7R7IgRlpsyuE0jcUc,Power Ministries Church of God,30.6827788,-84.8313948,church|place_of_worship|point_of_interest|establishment,"915 Short Street, Chattahoochee",OPERATIONAL
commercial_livestock,farm,ChIJq_V-NFvR7IgRfWbE4Gk8X6c,Chattahoochee Sewage Plant,30.6863833,-84.8462332,local_government_office|point_of_interest|establishment,"211 Palm Street, Chattahoochee",OPERATIONAL
commercial_livestock,farm,ChIJNS9OuDvR7IgRtAXpLvVVr3U,Chattahoochee Utilities & Public Works Office,30.6927462,-84.8389471,local_government_office|point_of_interest|establishment,"115 Lincoln Drive, Chattahoochee",OPERATIONAL
commercial_livestock,farm,ChIJ039V10jR7IgRhAIx-eLyciQ,City of Chattahoochee,30.692568,-84.8397671,local_government_office|point_of_interest|establishment,"115 Lincoln Drive, Chattahoochee",OPERATIONAL
commercial_livestock,farm,ChIJ-2yxUk7R7IgRuJKz7BLH1V4,Chattahoochee Recreation Department,30.693306,-84.844358,park|point_of_interest|establishment,"131 Oak Street, Chattahoochee",CLOSED_TEMPORARILY
commercial_livestock,farm,ChIJWdOfGlHR7IgRQeukgESrREw,Johnson's Heating & Cooling,30.69420599999999,-84.849717,point_of_interest|establishment,"422 Satsuma Road, Chattahoochee",OPERATIONAL
commercial_livestock,farm,ChIJ039V10jR7IgR2XPxfaslQNk,Boys & Girls Club-Big Bend,30.692778,-84.840502,point_of_interest|establishment,"715 Main Street, Chattahoochee",OPERATIONAL
commercial_livestock,farm,ChIJb2ETN1TR7IgRElObUgq8-vE,Chattahoochee RV Campground & Fishing Resort,30.6977,-84.85362289999999,campground|rv_park|lodging|park|point_of_interest|establishment,"269 River Landing Road, Chattahoochee",OPERATIONAL
commercial_livestock,farm,ChIJ5Th7mUvR7IgR_-pbhEPF8aQ,Chattahoochee First Baptist Church,30.698349,-84.84015,church|place_of_worship|point_of_interest|establishment,"503 Main Street, Chattahoochee",OPERATIONAL
commercial_livestock,farm,ChIJIYD3jEvR7IgRmHse7C5W9oo,Chattahoochee Presbyterian Church,30.6997148,-84.8412908,church|place_of_worship|point_of_interest|establishment,"423 Main Street, Chattahoochee",OPERATIONAL
commercial_livestock,farm,ChIJewD26lLR7IgRTXxvf6AXkU4,Lab Corporation,30.7004639,-84.8478511,health|point_of_interest|establishment,"400 High Street, Chattahoochee",OPERATIONAL
commercial_livestock,farm,ChIJOX4JnDXR7IgRbWeA23G3D04,Cowen Public Library,30.7010215,-84.8359227,library|point_of_interest|establishment,"300 Maple Street, Chattahoochee",OPERATIONAL
commercial_livestock,farm,ChIJC60zYqvW7IgRASempl8qFSQ,Hardee’s,30.7040638,-84.8517964,restaurant|food|point_of_interest|establishment,"651 West Washington Street, Chattahoochee",OPERATIONAL
commercial_livestock,farm,ChIJwakVZK3W7IgRtp2vbF3xhXM,Chattahoochee Fire Department,30.7038809,-84.8466265,fire_station|point_of_interest|establishment,"32 Jefferson Street, Chattahoochee",OPERATIONAL
commercial_livestock,farm,ChIJpRkeX7LW7IgRp7YurJmCLnE,Chattahoochee Church of Christ,30.70332569999999,-84.8460334,church|place_of_worship|point_of_interest|establishment,"212 West Marion Street, Chattahoochee",OPERATIONAL
commercial_livestock,farm,ChIJhaGAh63W7IgRcT4yhGpHD0U,Chattahoochee City Hall,30.7041645,-84.8466524,city_hall|local_government_office|point_of_interest|establishment,"22 Jefferson Street, Chattahoochee",OPERATIONAL
commercial_livestock,farm,ChIJK7FoIdXW7IgRcYXpjHX0K1I,"The ""C"" Store",30.704644,-84.84303299999999,convenience_store|gas_station|cafe|food|store|point_of_interest|establishment,"2 East Washington Street, Chattahoochee",OPERATIONAL
commercial_livestock,farm,ChIJ02Ds87LW7IgR5fXUeCFt8hI,Big Bend Hospice Inc,30.7037737,-84.8450745,health|point_of_interest|establishment,"36 Madison Street, Chattahoochee",OPERATIONAL
commercial_livestock,farm,ChIJUyGBiKzW7IgRKwvjl7ng2sA,Handymart 8,30.704547,-84.84988799999999,store|point_of_interest|establishment,"617 West Washington Street, Chattahoochee",OPERATIONAL
commercial_livestock,farm,ChIJfwDliLLW7IgRAU1eukf6YZ8,Hardware Hut,30.7044347,-84.8462639,hardware_store|store|point_of_interest|establishment,"19 Jefferson Street, Chattahoochee",OPERATIONAL
commercial_livestock,farm,ChIJ3SGBiKzW7IgRTISaiBvhANg,HANDI MART MARATHON,30.704547,-84.84988799999999,convenience_store|food|store|point_of_interest|establishment,"617 West Washington Street, Chattahoochee",OPERATIONAL
commercial_livestock,farm,ChIJs1hp8azW7IgRkjtJx_DH1Fo,Marathon Gas Station,30.70468839999999,-84.8499408,gas_station|point_of_interest|establishment,"617 West Washington Street, Chattahoochee",OPERATIONAL
commercial_livestock,farm,ChIJ1_own63W7IgRXUvqEnhqlMc,H&R Block,30.7050642,-84.8475993,accounting|finance|point_of_interest|establishment,"414 West Washington Street Ste 6, Chattahoochee",OPERATIONAL
commercial_livestock,farm,ChIJwbNrhq3W7IgR7Z5sTR5bNZA,CVS Photo,30.7047061,-84.8467917,point_of_interest|establishment,"313 Alley South, Chattahoochee",OPERATIONAL
commercial_livestock,farm,ChIJAW5hmbPW7IgRH8Bx25dP2n0,Eric Taylor - State Farm Insurance Agent,30.705138,-84.842161,insurance_agency|point_of_interest|establishment,"35 East Washington Street, Chattahoochee",OPERATIONAL
commercial_livestock,farm,ChIJg91BnK3W7IgRunagyDJ0e3M,Heritage Park,30.7051266,-84.8472481,park|point_of_interest|establishment,"19 Decatur Street, Chattahoochee",OPERATIONAL
commercial_livestock,farm,ChIJ9bkNgLPW7IgRlRo-gjBIh5k,United States Postal Service,30.7051398,-84.8452047,post_office|finance|point_of_interest|establishment,"116 West Washington Street, Chattahoochee",OPERATIONAL
commercial_livestock,farm,ChIJ3xoAU6zW7IgRMkseHEZraDU,Rutabaga Café,30.70546999999999,-84.849134,restaurant|food|point_of_interest|establishment,"23 Jackson Street, Chattahoochee",CLOSED_TEMPORARILY
commercial_livestock,farm,ChIJPQt3hq3W7IgR4v3pO1WFay8,CVS Pharmacy,30.7054187,-84.8466524,pharmacy|store|health|point_of_interest|establishment,"12 Decatur Street, Chattahoochee",OPERATIONAL
commercial_livestock,farm,ChIJv5IcHc3W7IgR7feDd0rLwUk,Gadsden County EMS Station 4,30.7032147,-84.8279463,health|point_of_interest|establishment,"Lonesome Pine Road, Chattahoochee",OPERATIONAL
commercial_livestock,farm,ChIJR3Yc8t3P7IgRkQ4dSLW61mg,Angelcare With A Vision,30.6012676,-84.794821,health|point_of_interest|establishment,"3577 Flat Creek Road, Chattahoochee",OPERATIONAL
commercial_livestock,farm,ChIJM1LcbzzR7IgRwEiy7tzccY0,Income Tax Preparation,30.6831203,-84.82934259999999,accounting|finance|point_of_interest|establishment,"829 Bethel Street, Chattahoochee",OPERATIONAL
commercial_livestock,farm,ChIJd_x9bLTW7IgRsgthJITGphU,"Dr. Scott D. Steinberg, MD",30.7058329,-84.8401976,doctor|health|point_of_interest|establishment,"Sycamore Street, Chattahoochee",OPERATIONAL
commercial_livestock,farm,ChIJ-xMR20XR7IgRgGbrOWIBHXY,"Dr. Josefina M. Baluga, MD",30.7062863,-84.841399,doctor|health|point_of_interest|establishment,United States,OPERATIONAL
commercial_livestock,farm,ChIJK7FoIdXW7IgRjm96bbeJqeY,ATM,30.7019934,-84.8174047,atm|finance|point_of_interest|establishment,United States,OPERATIONAL
commercial_livestock,farm,ChIJ3Yds9LPW7IgR6-YJsCpDNj0,"Dr. Rosalee J. Peckoo, MD",30.7063204,-84.84142080000001,doctor|health|point_of_interest|establishment,"100 North Main Street, Chattahoochee",OPERATIONAL
commercial_livestock,farm,ChIJEarF9cnW7IgRBkNIE-obXK4,River Junction Correctional,30.707935,-84.8355096,point_of_interest|establishment,"300 Pecan Lane, Chattahoochee",OPERATIONAL
commercial_livestock,farm,ChIJo1BtCATU7IgRwPxaZGEsLlI,Jim Woodruff Lock,30.7075256,-84.86485449999999,point_of_interest|establishment,"Jim Woodruff Powerhouse Road, Chattahoochee",OPERATIONAL
commercial_livestock,farm,ChIJ3Yds9LPW7IgRSxjMvji0JoU,"Ellen E. Resch, PhD",30.7063204,-84.84142080000001,health|point_of_interest|establishment,"100 North Main Street, Chattahoochee",OPERATIONAL
commercial_livestock,farm,ChIJ3Yds9LPW7IgRiTFli54f5RE,Salazar Jr Leonardo S MD,30.7063204,-84.84142080000001,doctor|health|point_of_interest|establishment,"100 North Main Street # 1012, Chattahoochee",OPERATIONAL
commercial_livestock,farm,ChIJn3gwSmrT7IgR9IzkhXFpE1U,HVAC/Duct Care Experts Co.,30.6858524,-84.91700759999999,general_contractor|point_of_interest|establishment,"1698 Darby Road, Sneads",OPERATIONAL
commercial_livestock,farm,ChIJ3Yds9LPW7IgRGtSo1-TcPJo,"May P. Tay, PhD",30.7063204,-84.84142080000001,health|point_of_interest|establishment,"100 North Main Street, Chattahoochee",OPERATIONAL
commercial_livestock,farm,ChIJt95pqT_R7IgRZMAJuNREfos,Flint Garden Apartments,30.6812251,-84.8335926,point_of_interest|establishment,"424 Line Street, Chattahoochee",OPERATIONAL
commercial_livestock,farm,ChIJ3Yds9LPW7IgRovsDIGFfnAo,"Nichole A. Livingston, PSYD",30.7063204,-84.84142080000001,health|point_of_interest|establishment,"100 North Main Street, Chattahoochee",OPERATIONAL
commercial_livestock,farm,ChIJY2ETN1TR7IgRY16OrMIJXB8,Chattahoochee Main Street,30.7050437,-84.84680929999999,point_of_interest|establishment,"316 West Washington Street, Chattahoochee",OPERATIONAL
commercial_livestock,farm,ChIJr91TQWGBk4gRuNt8YK2fZr4,the adjunct project at cuny,30.70500490000001,-84.8433605,point_of_interest|establishment,"10 Florida 30A, Chattahoochee",OPERATIONAL
commercial_livestock,farm,ChIJ4TmvQUDR7IgRf7qyuBvo9z4,River Junction Apartments,30.679327,-84.83685299999999,point_of_interest|establishment,"225 East River Road, Chattahoochee",OPERATIONAL
commercial_livestock,farm,ChIJ3Yds9LPW7IgRn6xdfMs2KPs,"Dr. Brett E. Jeffrey, DO",30.7063204,-84.84142080000001,doctor|health|point_of_interest|establishment,United States,OPERATIONAL
commercial_livestock,farm,ChIJ3Yds9LPW7IgRVNIP-ZOFjH0,"Sharon M. Lowery, ARNP",30.7063204,-84.84142080000001,doctor|health|point_of_interest|establishment,United States,OPERATIONAL
commercial_livestock,farm,ChIJ3Yds9LPW7IgRis6ZhIu6xqc,"Dr. Sandra J. Raheb, MD",30.7063204,-84.84142080000001,doctor|health|point_of_interest|establishment,"100 North Main Street, Chattahoochee",OPERATIONAL
commercial_livestock,farm,ChIJ27xxwgLS7IgRz0BnBPkGOhs,Saint James Church,30.62074859999999,-84.85852969999999,church|place_of_worship|point_of_interest|establishment,Quincy,OPERATIONAL
commercial_livestock,farm,ChIJs_ksgxfR7IgRmpJyXeWw5nY,NightOwl GraphixX & Tees,30.640548,-84.835837,store|point_of_interest|establishment,"452 Silas Walker Road, Chattahoochee",OPERATIONAL
commercial_livestock,farm,ChIJIVDWY7fR7IgRAOUpNSHTg5Y,Night Owl Clothing Brand,30.640548,-84.835837,clothing_store|store|point_of_interest|establishment,"452 Silas Walker Road, Chattahoochee",OPERATIONAL
commercial_livestock,farm,ChIJVVB7PzrN7IgR5shssHKDaB0,Saint James Missionary Baptist Church Cemetery,30.610211,-84.8611935,cemetery|point_of_interest|establishment,"Rowan Road, Quincy",OPERATIONAL
auto_repair_station,car_repair,ChIJc44zOLjC7IgRTVmLa7p8Fu8,A-1 Auto Service Inc.,30.5886552,-84.62489719999999,car_repair|car_dealer|store|point_of_interest|establishment,"17974 Blue Star Highway, Quincy",OPERATIONAL
auto_repair_station,car_repair,ChIJ37oQSH_D7IgRX7n34izQydM,Anderson Auto & Body Shop,30.5592309,-84.6851634,car_repair|point_of_interest|establishment,"480 Edwards Road, Quincy",OPERATIONAL
commercial_livestock,farm,ChIJSe3Z6cjc7IgR0X-yK_gJxNk,Gretna,30.6154619,-84.66176779999999,locality|political,Gretna,
commercial_livestock,farm,ChIJhdtgujXD7IgRI_Dhpx7sQtw,Green Jessie,30.5992466,-84.6667526,church|place_of_worship|point_of_interest|establishment,"89 Green Lane, Gretna",OPERATIONAL
commercial_livestock,farm,ChIJUenJmyXD7IgRMWKkOtv7roo,Gadsden Correctional Facility,30.5895709,-84.6545379,point_of_interest|establishment,"6044 Greensboro Highway, Quincy",OPERATIONAL
commercial_livestock,farm,ChIJm4sygZPc7IgRhHqULxXIgoA,Dollar General,30.60340059999999,-84.6543289,drugstore|convenience_store|grocery_or_supermarket|food|point_of_interest|health|store|establishment,"15830 Blue Star Highway, Gretna",OPERATIONAL
commercial_livestock,farm,ChIJBfuHZQLF7IgRC6WJfgB8VRM,West Gadsden Middle School,30.5668361,-84.7337635,school|point_of_interest|establishment,"200 Providence Road, Quincy",OPERATIONAL
commercial_livestock,farm,ChIJ6YemqMbc7IgRxmY4BSDrSgs,Gretna Police Department,30.6183683,-84.6623049,police|point_of_interest|establishment,"120 Beech Avenue, Gretna",OPERATIONAL
commercial_livestock,farm,ChIJa0aKEIbb7IgRgHNtGDqrxz4,St Mary CME Church,30.6605319,-84.6942588,church|place_of_worship|point_of_interest|establishment,"2772 Mount Pleasant Road, Mount Pleasant",OPERATIONAL
commercial_livestock,farm,ChIJ6YemqMbc7IgRpEWNL9FVgFI,City of Gretna Town Hall,30.6188539,-84.6630764,city_hall|local_government_office|point_of_interest|establishment,"14615 Main Street, Gretna",OPERATIONAL
commercial_livestock,farm,ChIJiddjJcTc7IgRBlbp_6mdWDY,Gadsden County Health Department,30.61770929999999,-84.6633763,local_government_office|point_of_interest|health|establishment,"14678 Main Street, Gretna",CLOSED_TEMPORARILY
commercial_livestock,farm,ChIJfeBsnIbb7IgRZWSWFrhr5hU,Glen Julia United Methodist Church,30.657908,-84.6946188,church|place_of_worship|point_of_interest|establishment,"2592 Mount Pleasant Road, Mount Pleasant",OPERATIONAL
commercial_livestock,farm,ChIJ-24Cwcvc7IgRTA09ydXhPhs,Anytime House and Building Washing Experts!,30.6073861,-84.66510319999999,general_contractor|point_of_interest|establishment,"422 Martin Luther King Boulevard, Gretna",OPERATIONAL
commercial_livestock,farm,ChIJr6paN8Hc7IgRoBDoE3p0LLk,Shadetree Success Center,30.6207859,-84.6651983,school|point_of_interest|establishment,"14494 Memorial Blue Star Highway, Gretna",OPERATIONAL
commercial_livestock,farm,ChIJt5jEFePa7IgROjcLDmHQfXM,Mitchell Nutter Park,30.63862069999999,-84.7351939,park|point_of_interest|establishment,"100 Bennett Road, Chattahoochee",OPERATIONAL
commercial_livestock,farm,ChIJ5UTMrcbc7IgReVKSolYv5RE,Trust God Ministries,30.618763,-84.6638681,church|place_of_worship|point_of_interest|establishment,"14602 Main Street, Gretna",OPERATIONAL
commercial_livestock,farm,ChIJ87itJsTc7IgRqD4q_n7YyZ8,United States Postal Service,30.6177231,-84.66338119999999,post_office|finance|point_of_interest|establishment,"14678 Main Street, Gretna",OPERATIONAL
commercial_livestock,farm,ChIJd8xLOsTc7IgRtcpfVCjv9g8,Sunoco,30.6180538,-84.66293399999999,gas_station|convenience_store|food|point_of_interest|store|establishment,"14681 Main Street, Gretna",OPERATIONAL
commercial_livestock,farm,ChIJY6RqZMTc7IgRcf0vcPZ7pak,North Florida Educational Development Corporation,30.6181071,-84.66226429999999,point_of_interest|establishment,"100 Beech Avenue, Gretna",OPERATIONAL
commercial_livestock,farm,ChIJ3YY7vtzc7IgRGafPGVPBZQw,Dulce Nails and Spa,30.6210825,-84.6576628,beauty_salon|point_of_interest|establishment,"11757 6th Street, Gretna",OPERATIONAL
commercial_livestock,farm,ChIJITCR4TbD7IgRYWMyBHO2UkU,Latino Motor Cars Inc,30.5939407,-84.66575619999999,car_dealer|point_of_interest|store|establishment,"95 Dewey Johnson Way, Gretna",OPERATIONAL
commercial_livestock,farm,ChIJ3a4aSQ7F7IgRi2aQBFFgMvA,Greensboro,30.5693597,-84.7432493,locality|political,Greensboro,
commercial_livestock,farm,ChIJh0ZIWVfD7IgR4o0-xEKGQJc,Greenway Landcare,30.5925435,-84.685318,point_of_interest|establishment,"10390 Flat Creek Road, Quincy",OPERATIONAL
commercial_livestock,farm,ChIJqzIVqzfD7IgRMP3msO17gus,Grace Baptist Church,30.59356399999999,-84.6665015,church|place_of_worship|point_of_interest|establishment,"5411 Greensboro Highway, Quincy",OPERATIONAL
commercial_livestock,farm,ChIJByZ6lnjc7IgRYMpFtgRbJNg,Centenary Camp,30.6656686,-84.6653469,point_of_interest|establishment,"371 Centenary Camp Road, Quincy",OPERATIONAL
commercial_livestock,farm,ChIJG4q5dqLE7IgRQFn33Nq7rE8,Shell,30.58133029999999,-84.6967753,gas_station|convenience_store|restaurant|food|store|point_of_interest|establishment,"3314 Greensboro Highway, Quincy",OPERATIONAL
commercial_livestock,farm,ChIJb9qRx5jE7IgRfQDxz7a0_NE,Marathon Gas,30.5808514,-84.6968531,gas_station|convenience_store|food|store|point_of_interest|establishment,"45 Kneeology Way, Quincy",OPERATIONAL
commercial_livestock,farm,ChIJv0CI1i3D7IgR5KgzjST77yg,Rinker Materials,30.5975423,-84.656188,store|point_of_interest|establishment,"55 Dritches Hays Clary Avenue, Gretna",OPERATIONAL
commercial_livestock,farm,ChIJ2feloC7D7IgR-kR7SK2sPzM,CDS Manufacturing Inc,30.5954246,-84.6542892,point_of_interest|establishment,"106 Hayes Street, Gretna",OPERATIONAL
commercial_livestock,farm,ChIJV0yKCKDC7IgRI0Qt5on_9ek,Shell,30.59127929999999,-84.6431781,gas_station|atm|convenience_store|finance|food|store|point_of_interest|establishment,"16854 Blue Star Highway, Quincy",OPERATIONAL
commercial_livestock,farm,ChIJZUJ-yhvd7IgRES7WawAuQic,Lindquist Studios,30.62117899999999,-84.627145,point_of_interest|establishment,"311 Glory Road, Quincy",OPERATIONAL
commercial_livestock,farm,ChIJETRJGYPb7IgRo3Y11zPCefc,Robert F. Munroe Day School: West Campus,30.6533673,-84.6996276,secondary_school|school|point_of_interest|establishment,"91 Old Mount Pleasant Road, Quincy",OPERATIONAL
commercial_livestock,farm,ChIJnVjclg_F7IgRnELO01IUtYQ,Express Lane,30.5702911,-84.7427366,convenience_store|gas_station|food|store|point_of_interest|establishment,"85 Green Avenue, Greensboro",OPERATIONAL
commercial_livestock,farm,ChIJC4vtqfza7IgRc2SD0lDt1vI,Deliverence Temple First Born,30.6400171,-84.7365738,church|place_of_worship|point_of_interest|establishment,"5715 Hardaway Highway, Chattahoochee",OPERATIONAL
commercial_livestock,farm,ChIJqUoacw7F7IgRJ2j6u94zqbM,Town of Greensboro,30.5690414,-84.742308,city_hall|local_government_office|point_of_interest|establishment,"150 East 11 Th Street, Greensboro",OPERATIONAL
commercial_livestock,farm,ChIJR6OrBO7y7IgR7Zx1VL3LAqY,Subway,30.57007149999999,-84.7425859,meal_takeaway|restaurant|food|point_of_interest|establishment,"85 Green Avenue, Greensboro",OPERATIONAL
commercial_livestock,farm,ChIJP03UCg_F7IgRLdtlxWh2_NI,United States Postal Service,30.5686041,-84.74317409999999,post_office|finance|point_of_interest|establishment,"191 Green Avenue, Greensboro",OPERATIONAL
commercial_livestock,farm,ChIJMQpPfA_F7IgR0ZU6prxkjM0,Greensboro UMC,30.5673179,-84.7422103,church|place_of_worship|point_of_interest|establishment,"310, Gadsden Avenue, Greensboro",OPERATIONAL
commercial_livestock,farm,ChIJb_SGkcPC7IgR-Kv6nY3gv4Q,Siloam Cemetery,30.5835438,-84.63386539999999,cemetery|point_of_interest|establishment,"Harbin Road, Quincy",CLOSED_TEMPORARILY
commercial_livestock,farm,ChIJ-bVVJA_F7IgRmXzzXkvng6E,"West Gadsden Historical Society, Inc.",30.5667977,-84.74416579999999,museum|point_of_interest|establishment,"328 East 8 Th Street, Greensboro",OPERATIONAL
commercial_livestock,farm,ChIJgYrtqfza7IgRgjr1-Low520,Pastor Titus Deas,30.640632,-84.736713,church|place_of_worship|point_of_interest|establishment,"5715 Hardaway Highway, Chattahoochee",OPERATIONAL
commercial_livestock,farm,ChIJrzGcJXHD7IgRmFdkVbJ9s2w,Cooksey Auction,30.5639717,-84.6762005,point_of_interest|establishment,"8645 Hosford Highway, Quincy",OPERATIONAL
commercial_livestock,farm,ChIJ-20mEGXF7IgRmoTT2tVa1UU,Open Word Worship Center,30.57471959999999,-84.7647571,church|place_of_worship|point_of_interest|establishment,"62 Lonnie Clark Road, Quincy",OPERATIONAL
commercial_livestock,farm,ChIJBxrQX2HF7IgRI943f8izbFY,Peeler Properties,30.57857499999999,-84.769379,real_estate_agency|point_of_interest|establishment,"271 Lonnie Clark Road, Quincy",OPERATIONAL
commercial_livestock,farm,ChIJjbZzZLnC7IgRz0LchbP2Xvg,Farm Share,30.5863475,-84.62243649999999,food|point_of_interest|establishment,"Historic District, 18212 Blue Star Highway, Quincy",OPERATIONAL
commercial_livestock,farm,ChIJ8_bt7b3E7IgRXsypQfZ-o5I,Creek Entertainment Gretna,30.5837211,-84.7034225,casino|point_of_interest|establishment,"501 Racetrack Drive, Gretna",OPERATIONAL
commercial_livestock,farm,ChIJM56BA1fd7IgRnfYZhHWWQZA,Golf Club of Quincy,30.6154727,-84.6258392,point_of_interest|establishment,"2291 Solomon Dairy Road, Quincy",OPERATIONAL
commercial_livestock,farm,ChIJnfDLUnzn7IgRrlHlxAkjprE,Florida A & M University,30.6573284,-84.6927106,university|point_of_interest|establishment,"303 Dessie Drive, Quincy",OPERATIONAL
commercial_livestock,farm,ChIJyfA1jurc7IgR9xiyRKFb9Ww,Tabernacle Church of Christ,30.6472553,-84.67899,church|place_of_worship|point_of_interest|establishment,"12425 Blue Star Highway, Gretna",OPERATIONAL
commercial_livestock,farm,ChIJ26-jAobb7IgRWAnQMO6g_-Y,"Norma Torres, PsyD",30.660108,-84.69645600000001,health|point_of_interest|establishment,"2733 Mount Pleasant Road, Mount Pleasant",OPERATIONAL
commercial_livestock,farm,ChIJFxDwFkjD7IgR_rL1OQtjcIA,Meadows Grocery & Market,30.5931516,-84.6679873,grocery_or_supermarket|food|store|point_of_interest|establishment,"5335 Greensboro Highway, Quincy",OPERATIONAL
commercial_livestock,farm,ChIJuxrwFkjD7IgRwViIqLECzbM,ATM,30.5931576,-84.6679807,atm|finance|point_of_interest|establishment,"5335 Greensboro Highway, Quincy",OPERATIONAL
commercial_livestock,farm,ChIJL2DET9Lc7IgRpsU2j85Uc_Y,Gretna Elementary School,30.60573239999999,-84.65610290000001,primary_school|school|point_of_interest|establishment,"706 Martin Luther King Boulevard, Gretna",OPERATIONAL
commercial_livestock,farm,ChIJFe-DYo3E7IgR4cxAptni-g4,Fason's Sausage Inc,30.5699935,-84.709139,food|store|point_of_interest|establishment,"2241 Greensboro Highway, Quincy",OPERATIONAL
commercial_livestock,farm,ChIJKdWVELjC7IgRi9AfXUpDuSA,Horse shoe Motor Lodge,30.5894124,-84.6261708,lodging|point_of_interest|establishment,"17890 Blue Star Highway, Quincy",OPERATIONAL
commercial_livestock,farm,ChIJhSX4ZoLb7IgRFXD0hV3kJaw,DandA Handyman Solutions,30.650756,-84.6970384,point_of_interest|establishment,"111 Little Mexico Lane, Quincy",OPERATIONAL
commercial_livestock,farm,ChIJ3YhuRwDd7IgRRJOfYfXXD_Y,Lanier oaks apartments,30.6236636,-84.67336619999999,point_of_interest|establishment,"Lanier Drive, Gretna",OPERATIONAL
commercial_livestock,farm,ChIJe0ANyI_b7IgRxajwVgP5sv4,Hayes Farm,30.650254,-84.7154149,point_of_interest|establishment,"1253 West L Martin Road, Chattahoochee",OPERATIONAL
commercial_livestock,farm,ChIJH8Ock4Pb7IgR9byK-oBqO4M,Sanders Concrete Masonry,30.6547969,-84.6964646,general_contractor|point_of_interest|establishment,"2360 Quincy Dr, Mount Pleasant",OPERATIONAL
commercial_livestock,farm,ChIJdaHBccDc7IgRveKB65dLYLs,Saint Pauls Church,30.6241495,-84.6715871,church|place_of_worship|point_of_interest|establishment,"280 Lanier Drive, Gretna",OPERATIONAL
commercial_livestock,farm,ChIJCVSrGX3d7IgROXLeJiI64Is,Tabernacle Church of Christ Cemetery,30.6473241,-84.67741930000001,cemetery|point_of_interest|establishment,"Blue Star Highway, Gretna",OPERATIONAL
auto_repair_station,car_repair,ChIJo-P2qxLo7IgRoWJlb-uJjfk,Take 5 Oil Change,30.5878541,-84.5854884,car_repair|point_of_interest|establishment,"719 West Jefferson Street, Quincy",OPERATIONAL
auto_repair_station,car_repair,ChIJR44jqXLo7IgRBlVlvIR5VB8,Mitchem's Pawn and Gold,30.5882871,-84.58350399999999,electronics_store|finance|car_repair|store|point_of_interest|establishment,"518 West Jefferson Street, Quincy",OPERATIONAL
auto_repair_station,car_repair,ChIJMZcxzxHo7IgRMr1_gNTfyhQ,Scott Brothers Automotive,30.5873563,-84.59242019999999,car_repair|point_of_interest|establishment,"15 South Main Street, Quincy",OPERATIONAL
auto_repair_station,car_repair,ChIJr8Qc7qPd7IgRAbcIibtbGhQ,Quincy Auto Parts,30.58751710000001,-84.5908686,car_repair|store|point_of_interest|establishment,"1141 West Jefferson Street, Quincy",OPERATIONAL
auto_repair_station,car_repair,ChIJ25NtT1Hk7IgRq4kedXbqZag,Stripes Unlimited,30.64801,-84.48609499999999,car_repair|point_of_interest|establishment,"4870 Point Milligan Road, Quincy",OPERATIONAL
auto_repair_station,car_repair,ChIJy7Nw0x_o7IgRPZVwYafvP_c,Hinson Fuel Card,30.57849539999999,-84.60622269999999,gas_station|car_repair|point_of_interest|establishment,"626 South Virginia Street, Quincy",OPERATIONAL
auto_repair_station,car_repair,ChIJ70W3K6PC7IgRFuFgjXv3834,Jones and Sons Repair,30.5822177,-84.61402199999999,car_repair|store|point_of_interest|establishment,"6692 Ben Bostick Road, Quincy",OPERATIONAL
auto_repair_station,car_repair,ChIJwzsQ5hvo7IgRlPD8mcQ_jow,N & E Machine & Parts Inc,30.583666,-84.599783,car_repair|point_of_interest|establishment,"1800 Florida Avenue, Quincy",OPERATIONAL
auto_repair_station,car_repair,ChIJQY8IrXzo7IgRc0Bxgi5MHNE,Don Sirmons Alignment & Brake,30.5876711,-84.5688168,car_repair|point_of_interest|establishment,"396 East Jefferson Street, Quincy",OPERATIONAL
auto_repair_station,car_repair,ChIJ1S2ubIfb7IgRLAkgR_Ee8OI,B & L Auto,30.5983443,-84.5042567,car_repair|point_of_interest|establishment,"337 Friday Road, Quincy",OPERATIONAL
auto_repair_station,car_repair,ChIJ7dSefRLo7IgRTLce7-JnC44,AutoZone Auto Parts,30.5884135,-84.5882383,car_repair|store|point_of_interest|establishment,"936 West Jefferson Street, Quincy",OPERATIONAL
auto_repair_station,car_repair,ChIJE3j1TBro7IgRMC3y4kMnEAo,Sheffield's Body Shop,30.58429490000001,-84.59864739999999,car_repair|point_of_interest|establishment,"1715 Main Line Drive, Quincy",OPERATIONAL
auto_repair_station,car_repair,ChIJjctrfxvo7IgRGGQ_4TKyJM8,Advance Auto Parts,30.5859614,-84.60049599999999,car_repair|store|point_of_interest|establishment,"1810 West Jefferson Street, Quincy",OPERATIONAL
auto_repair_station,car_repair,ChIJI4aAr13p7IgR3nEVxDGbua4,Blue Star Brake and Alignment,30.5876141,-84.5686985,car_repair|point_of_interest|establishment,"Historic District, 396 East Jefferson Street, Quincy",OPERATIONAL
auto_repair_station,car_repair,ChIJDcTyi43n7IgRSxf4547UHWQ,Blocker Racing,30.6428295,-84.6023822,car_repair|point_of_interest|establishment,"Historic District, 128 Brangus Lane, Quincy",OPERATIONAL
auto_repair_station,car_repair,ChIJPVh1HNfp7IgRHUOJPCmOuQc,Takekoffcycles,30.5875918,-84.5754019,car_repair|point_of_interest|establishment,"15 South Madison Street, Quincy",OPERATIONAL
auto_repair_station,car_repair,ChIJKw_NRLPp7IgRjaVw2FStFvc,Michael johnso,30.5830189,-84.5605745,car_repair|point_of_interest|establishment,"125 Bradley Street, Quincy",OPERATIONAL
auto_repair_station,car_repair,ChIJybKNYTLn7IgRsDDoVzYT1Uw,G&A Towing and Roadside Assistance,30.6447493,-84.6056972,locksmith|car_repair|point_of_interest|establishment,"417 Goldwire Road, Quincy",OPERATIONAL
auto_repair_station,car_repair,ChIJwXpuem3o7IgRWi_VT4GfEzM,Weeks Automotive,30.58752059999999,-84.58305779999999,car_repair|point_of_interest|establishment,"18 South Ward Street, Quincy",OPERATIONAL
auto_repair_station,car_repair,ChIJ3bstWA3o7IgRFpUnGo7lsN4,Quincy Alignment & Brake,30.58839,-84.58574290000001,car_repair|point_of_interest|establishment,"804 West Jefferson Street, Quincy",OPERATIONAL
auto_repair_station,car_repair,ChIJD8kBYQ3o7IgRIshOd0CWL4k,W & L Tire & Wheel,30.5885421,-84.5865493,car_repair|point_of_interest|store|establishment,"820 West Jefferson Street, Quincy",OPERATIONAL
auto_repair_station,car_repair,ChIJFQ8emxLo7IgROPDpFqLt9y4,Quincy Tire & Recapping Co,30.587916,-84.5870296,car_repair|point_of_interest|store|establishment,"905 West Jefferson Street, Quincy",OPERATIONAL
auto_repair_station,car_repair,ChIJGRDLh8Xx7IgRRqt_HqgDusI,Victors Garage,30.5885971,-84.59342769999999,car_repair|point_of_interest|establishment,"Historic District, 1315 West Washington Street, Quincy",OPERATIONAL
auto_repair_station,car_repair,ChIJ8Q5Hohvo7IgR9mTosF9G_Qc,O'Reilly Auto Parts,30.58509429999999,-84.5994594,electronics_store|car_repair|point_of_interest|store|establishment,"1741 West Jefferson Street, Quincy",OPERATIONAL
auto_repair_station,car_repair,ChIJL_nJdS_p7IgRpxCx1vLlRIk,spencer paint and body,30.565263,-84.5647157,car_repair|point_of_interest|establishment,"131 Joe Knight Street, Quincy",OPERATIONAL
auto_repair_station,car_repair,ChIJ8QsHDAfp7IgRWGXYcT-P1BQ,"Goldwire's 24-Hour Truck, Trailer, and Tire Repair",30.5799133,-84.6017574,car_repair|point_of_interest|store|establishment,"1837 Lucky Street, Quincy",OPERATIONAL
auto_repair_station,car_repair,ChIJLWq7wmXD7IgRAJvkpVnAq8k,C&J Roadside Repair LLC,30.5822236,-84.6140405,car_repair|point_of_interest|establishment,"Historic District, 6692 Ben Bostick Road, Quincy",OPERATIONAL
auto_repair_station,car_repair,ChIJeSSDIfXp7IgRqGzG0Xy16QI,Gorilla tire,30.55490589999999,-84.5268088,car_repair|point_of_interest|establishment,"25010 Blue Star Highway, Quincy",OPERATIONAL
commercial_livestock,farm,ChIJz__G4kPo7IgRQypTCmEiBpg,Quincy,30.5880468,-84.59105799999999,locality|political,Quincy,
commercial_livestock,farm,ChIJKT-Wn6fn7IgRhK2MGPXSLl0,Philadelphia Church,30.64383419999999,-84.577182,church|place_of_worship|point_of_interest|establishment,"Historic District, 1521 Old Philadelphia Church Road, Quincy",OPERATIONAL
commercial_livestock,farm,ChIJ642OGnjo7IgRxQ3AbVXY-xM,Clariant Corporation,30.60108049999999,-84.57372649999999,point_of_interest|establishment,"1101 North Madison Street, Quincy",OPERATIONAL
commercial_livestock,farm,ChIJ_e98CxLo7IgRUXVefZ3nTwg,Subway,30.58782699999999,-84.5891307,meal_takeaway|restaurant|food|point_of_interest|establishment,"1013 West Jefferson Street, Quincy",OPERATIONAL
commercial_livestock,farm,ChIJm_V2oaXn7IgRrmeggFNl2Ks,Second Elizabeth Mb Church,30.6365593,-84.57620589999999,church|place_of_worship|point_of_interest|establishment,"2718 Attapulgus Highway, Quincy",OPERATIONAL
commercial_livestock,farm,ChIJB5usXW3o7IgRywDMP_B2kZ8,Economic Services,30.587568,-84.58394700000001,point_of_interest|establishment,"6 South Key Street, Quincy",OPERATIONAL
commercial_livestock,farm,ChIJs-Nswe7o7IgR8y10tafErfc,North Florida Medical - Jessie Furlow (Quincy),30.5707992,-84.55168239999999,dentist|point_of_interest|doctor|health|establishment,"1249 Strong Road, Quincy",OPERATIONAL
commercial_livestock,farm,ChIJaf1d12vo7IgRNg42s8Z4D3Q,Carter Paramore Academy,30.5806213,-84.5802305,secondary_school|school|point_of_interest|establishment,"631 South Stewart Street, Quincy",OPERATIONAL
commercial_livestock,farm,ChIJjUdMbm3o7IgRifm1MSevYQg,Gadsen County Traffic Department,30.5871392,-84.5832453,local_government_office|point_of_interest|establishment,Quincy,OPERATIONAL
commercial_livestock,farm,ChIJczclfKTC7IgRpxtMHINkW94,Piggly Wiggly,30.5840796,-84.6143694,store|supermarket|grocery_or_supermarket|food|point_of_interest|establishment,"18680 Blue Star Highway, Quincy",OPERATIONAL
commercial_livestock,farm,ChIJeVqkiQXo7IgR_BLX5SmzXgo,Gadsden County Public Health,30.5919561,-84.5938583,local_government_office|point_of_interest|health|establishment,"1400 West King Street, Quincy",OPERATIONAL
commercial_livestock,farm,ChIJ7U1kDzzo7IgRxJ8AoYF27b4,Active Minerals Int LLC,30.5715675,-84.59172819999999,point_of_interest|establishment,"1130 Dade Street, Quincy",OPERATIONAL
commercial_livestock,farm,ChIJxaB9wxHo7IgRpE08X-KzuaM,Walgreens,30.5874749,-84.5919646,drugstore|convenience_store|clothing_store|food|point_of_interest|health|store|establishment,"1217 West Jefferson Street, Quincy",OPERATIONAL
commercial_livestock,farm,ChIJScP6lnrl7IgRxtdYDnx_qxI,Tallavana Christian School,30.60755959999999,-84.4710326,school|point_of_interest|establishment,"5840 Havana Highway, Havana",OPERATIONAL
commercial_livestock,farm,ChIJ-TT6AxLo7IgRAzWY_0YiT4k,Hungry Howie's Pizza & Subs,30.587489,-84.5900163,meal_delivery|meal_takeaway|restaurant|food|point_of_interest|establishment,"1117 West Jefferson Street, Quincy",OPERATIONAL
commercial_livestock,farm,ChIJqVO3K6PC7IgRFhaGQfk-Ot0,Aaron's Rent To Own,30.5838281,-84.61438270000001,furniture_store|electronics_store|home_goods_store|point_of_interest|store|establishment,"6795 Ben Bostick Road, Quincy",OPERATIONAL
commercial_livestock,farm,ChIJKZa0SXDo7IgRR-UGJPd1t1Y,Capital City Bank,30.5894498,-84.57670859999999,bank|atm|finance|point_of_interest|establishment,"4 East Washington Street, Quincy",OPERATIONAL
commercial_livestock,farm,ChIJqYZQjg_o7IgRF96_M8w1dl0,Gadsden Tomato,30.5903221,-84.5946258,food|point_of_interest|establishment,"218 North Graves Street, Quincy",OPERATIONAL
commercial_livestock,farm,ChIJr49Z0mTo7IgRpX7FuJcKGys,Gadsden County Emergency Management,30.5872505,-84.57125409999999,local_government_office|point_of_interest|establishment,"339 East Jefferson Street, Quincy",CLOSED_TEMPORARILY
commercial_livestock,farm,ChIJfz_ojHro7IgR3Sc4kwnRS0U,Quincy Historic District,30.5900248,-84.57340169999999,neighborhood|political,Quincy,
commercial_livestock,farm,ChIJs-Nswe7o7IgRuZkMKq8z65M,Commedore Emile MD,30.5676489,-84.54999,doctor|health|point_of_interest|establishment,"278 Lasalle Leffall Drive, Quincy",OPERATIONAL
commercial_livestock,farm,ChIJs-Nswe7o7IgR-Fa1sfxMo3s,Mohamed Mohamed Y MD,30.5676489,-84.54999,doctor|health|point_of_interest|establishment,"278 Lasalle Leffall Drive, Quincy",OPERATIONAL
commercial_livestock,farm,ChIJIf6SqBro7IgRwA4JC2IZOoI,Lawrence Realty,30.5879473,-84.59566009999999,real_estate_agency|point_of_interest|establishment,"37 North Cleveland Street, Quincy",OPERATIONAL
commercial_livestock,farm,ChIJJS7aqHro7IgRRkfaokBZUsI,Quincy Garden Center,30.5884556,-84.5743373,food|point_of_interest|establishment,"204 East Jefferson Street, Quincy",OPERATIONAL
commercial_livestock,farm,ChIJUZpq9W3o7IgRsnbRzjjZC9Y,Dollar General,30.5875548,-84.58103640000002,convenience_store|drugstore|grocery_or_supermarket|health|store|food|point_of_interest|establishment,"315 West Jefferson Street, Quincy",OPERATIONAL
commercial_livestock,farm,ChIJHxpHJHDo7IgRiOC5WwPMcqs,Nicholas Thomas Clerk's Office,30.58790840000001,-84.57654769999999,insurance_agency|point_of_interest|establishment,"10 East Jefferson Street, Quincy",OPERATIONAL
commercial_livestock,farm,ChIJv3KDdnDo7IgRUm-DGIEHb9E,The Quincy Music Theater,30.58949939999999,-84.57473089999999,point_of_interest|establishment,"118 East Washington Street, Quincy",OPERATIONAL
commercial_livestock,farm,ChIJM9mvJ3Do7IgRIXw3COWusE8,Gadsden County Veteran Services,30.58791099999999,-84.57662400000001,local_government_office|point_of_interest|establishment,"5 Jefferson Street # B, Quincy",OPERATIONAL
commercial_livestock,farm,ChIJ5ReksHzo7IgRU5x54hZ5v3I,Gadsden County Facilities Management,30.5874109,-84.5683456,health|point_of_interest|establishment,"412 East Jefferson Street, Quincy",OPERATIONAL
commercial_livestock,farm,ChIJ1S2ubIfb7IgR-1NLojzPGyQ,School of Human Flight,30.59761,-84.55438199999999,point_of_interest|establishment,"1310 Airport Drive, Quincy",OPERATIONAL
commercial_livestock,farm,ChIJW-V1k3Ho7IgRWgKAXTCC4oY,Big Bend Hospice Inc,30.59059749999999,-84.5772638,health|point_of_interest|establishment,"208 North Adams Street, Quincy",OPERATIONAL
commercial_livestock,farm,ChIJcQBjs3Ho7IgRGOa0QtfZwyU,Regional Therapy Services Inc,30.5896224,-84.5771713,health|point_of_interest|establishment,"108 North Adams Street, Quincy",OPERATIONAL
commercial_livestock,farm,ChIJh1T3kHHo7IgRJ0sXIuSAxEA,Legal Services of North Florida,30.5900328,-84.5790538,point_of_interest|establishment,"121 North Jackson Street, Quincy",OPERATIONAL
commercial_livestock,farm,ChIJ21GQ9XDo7IgR7erN9FGBmWM,Centenary United Methodist Church,30.59000419999999,-84.5760665,church|place_of_worship|point_of_interest|establishment,"206 North Madison Street, Quincy",OPERATIONAL
commercial_livestock,farm,ChIJ13hH7HDo7IgRgONx08hOT3Q,First Presbyterian Church,30.5913795,-84.5760995,church|place_of_worship|point_of_interest|establishment,"306 North Madison Street, Quincy",OPERATIONAL
commercial_livestock,farm,ChIJp9LZtnHo7IgRE21hNYwKL0c,Tallahassee Memorial Gadsden Outpatient Rehabilitation Center,30.5893902,-84.5776935,health|point_of_interest|establishment,"16 West Washington Street, Quincy",OPERATIONAL
commercial_livestock,farm,ChIJx-TlIv8gk4gRcXRE8JgdZ5Q,Tracy Roberts Handyman Service LLC,30.5965259,-84.5847313,painter|general_contractor|point_of_interest|establishment,"705 Forest Drive, Quincy",OPERATIONAL
commercial_livestock,farm,ChIJBVCGAXDo7IgRMzL18zkVzjc,Police Department,30.5879012,-84.5748346,police|point_of_interest|establishment,"121 East Jefferson Street, Quincy",OPERATIONAL
commercial_livestock,farm,ChIJqwVJuHHo7IgR6V_KL_IqCcQ,Stewart TV & Appliances Inc,30.5893967,-84.57786829999999,electronics_store|furniture_store|home_goods_store|store|point_of_interest|establishment,"24 West Washington Street, Quincy",OPERATIONAL
commercial_livestock,farm,ChIJGWAXGWPo7IgR3x6URAtuN9E,Maryland Fried Chicken,30.585788,-84.567245,restaurant|food|point_of_interest|establishment,"605 East Jefferson Street, Quincy",OPERATIONAL
commercial_livestock,farm,ChIJjeWjG27o7IgRdUL0nX6YIuw,Charles McClellan Funeral Home,30.5874959,-84.5790234,funeral_home|point_of_interest|establishment,"15 South Jackson Street, Quincy",OPERATIONAL
commercial_livestock,farm,ChIJjfnbIHDo7IgRlF920se4t6w,Environmental Health Department,30.58791399999999,-84.576201,local_government_office|health|point_of_interest|establishment,"17 East Jefferson Street, Quincy",OPERATIONAL
commercial_livestock,farm,ChIJR0myIXPo7IgRPlLa262o6dg,Paec Migrant Education Program,30.5917829,-84.5823357,school|point_of_interest|establishment,"500 West King Street, Quincy",OPERATIONAL
commercial_livestock,farm,ChIJjUdMbm3o7IgR__umAJ2OW7M,City of Quincy Utilities,30.58843809999999,-84.5817445,local_government_office|point_of_interest|establishment,"404 West Jefferson Street, Quincy",OPERATIONAL
commercial_livestock,farm,ChIJo-P2qxLo7IgRoWJlb-uJjfk,Take 5 Oil Change,30.5878541,-84.5854884,car_repair|point_of_interest|establishment,"719 West Jefferson Street, Quincy",OPERATIONAL
commercial_livestock,farm,ChIJR44jqXLo7IgRBlVlvIR5VB8,Mitchem's Pawn and Gold,30.5882871,-84.58350399999999,electronics_store|finance|store|car_repair|point_of_interest|establishment,"518 West Jefferson Street, Quincy",OPERATIONAL
commercial_livestock,farm,ChIJG3VwKHDo7IgRDwVrM5cFsqM,Gadsden County Probation,30.58795759999999,-84.576584,point_of_interest|establishment,"5 East Jefferson Street a, Quincy",OPERATIONAL
commercial_livestock,farm,ChIJR0myIXPo7IgRIkP3l3H5HqU,Gadsden County Headstart,30.5916576,-84.583229,school|point_of_interest|establishment,"500 West King Street, Quincy",OPERATIONAL
commercial_livestock,farm,ChIJ4SYe6m3o7IgR1Bb4mKP950M,Juvenile Justice Program,30.5867015,-84.5805725,point_of_interest|establishment,"305 West Crawford Street, Quincy",OPERATIONAL
commercial_livestock,farm,ChIJC-w4JHDo7IgRmM_mjqZj4Yo,State Attorney,30.587909,-84.57678299999999,lawyer|point_of_interest|establishment,"1 Jefferson Street # A, Quincy",OPERATIONAL
commercial_livestock,farm,ChIJGWAZAhLo7IgRxRsuuJptATU,Quality Discount Meats,30.5875701,-84.5902099,store|food|point_of_interest|establishment,"1125 West Jefferson Street, Quincy",OPERATIONAL
commercial_livestock,farm,ChIJ4SYe6m3o7IgRas-2WBsAy-4,Big Bend Transit,30.5865931,-84.58077039999999,local_government_office|point_of_interest|establishment,"305 West Crawford Street # B, Quincy",OPERATIONAL
commercial_livestock,farm,ChIJf2LuN2Po7IgRjWFslIp76kY,Clark Tractor Co,30.5867898,-84.567218,food|point_of_interest|establishment,"526 East Jefferson Street, Quincy",OPERATIONAL
commercial_livestock,farm,ChIJ63fFRnDo7IgRu3P938-7SbY,Proforma Multimedia Solutions,30.589422,-84.5763021,store|point_of_interest|establishment,"Historic District, 14 East Washington Street, Quincy",OPERATIONAL
commercial_livestock,farm,ChIJM9mvJ3Do7IgRZclbyw1uSMo,Gadsden County Board of County Commissioners,30.58791199999999,-84.576465,local_government_office|point_of_interest|establishment,"9 East Jefferson Street # B, Quincy",OPERATIONAL
commercial_livestock,farm,ChIJO2jg0vzl7IgROrxEZa-Zn1M,St Matthew Primitive Baptist Church,30.6078567,-84.5186706,church|place_of_worship|point_of_interest|establishment,"1455 Post Plant Road, Quincy",OPERATIONAL
commercial_livestock,farm,ChIJjUdMbm3o7IgRam6oPxhbzbU,Gadsden County Criminal Records,30.5873069,-84.571405,local_government_office|police|point_of_interest|establishment,"339 East Jefferson Street, Quincy",OPERATIONAL
commercial_livestock,farm,ChIJLXqsQHDo7IgRo0d1l1CMVL0,Thomas P Skipper Surveyor,30.58931749999999,-84.57626669999999,point_of_interest|establishment,"16 East Washington Street, Quincy",OPERATIONAL
commercial_livestock,farm,ChIJPUKuZmXo7IgRQgX5YXxNDxs,Arnett Chapel AME,30.5860799,-84.5743524,church|place_of_worship|point_of_interest|establishment,"209 South Duval Street, Quincy",OPERATIONAL
commercial_livestock,farm,ChIJHTMebnDo7IgReCdpq7pnzLU,"Dvercity, Inc.",30.5895961,-84.5753105,book_store|clothing_store|home_goods_store|health|store|point_of_interest|establishment,"104 East Washington Street #1, Quincy",OPERATIONAL
excessive_noise,airport,ChIJb7fkBYLo7IgRwUEs3j-Xvj4,Quincy Municipal Airport-2J9,30.5976045,-84.5560833,airport|point_of_interest|establishment,"1300 Airport Drive, Quincy",OPERATIONAL
auto_repair_station,car_repair,ChIJh_oCJ8b67IgRj6p0WoYOYsE,NAPA Auto Parts - Williams Auto Supply,30.619562,-84.427708,car_repair|store|point_of_interest|establishment,"8658 Havana Highway, Havana",OPERATIONAL
auto_repair_station,car_repair,ChIJL-hceDhZ7IgRX84Z9-SMhuo,Lesch Designs: Auto Tops and Interiors,30.60618280000001,-84.42338029999999,car_repair|point_of_interest|establishment,"4333 Florida Georgia Highway, Havana",OPERATIONAL
auto_repair_station,car_repair,ChIJ25NtT1Hk7IgRq4kedXbqZag,Stripes Unlimited,30.64801,-84.48609499999999,car_repair|point_of_interest|establishment,"4870 Point Milligan Road, Quincy",OPERATIONAL
auto_repair_station,car_repair,ChIJJ1Q1R1j67IgRE-20qsqEXa8,Havana Auto & Transmission Rpr,30.6282496,-84.37936499999999,car_repair|point_of_interest|establishment,"2441 Kemp Road, Havana",OPERATIONAL
auto_repair_station,car_repair,ChIJzc_WfMD67IgRuTpmEZzqrHs,Doc's Service Station,30.6214,-84.40930000000002,gas_station|car_repair|point_of_interest|establishment,Havana,CLOSED_TEMPORARILY
auto_repair_station,car_repair,ChIJE1Xm0ef67IgRwisB8PLx9sI,AutoZone Auto Parts,30.6235618,-84.4147919,car_repair|store|point_of_interest|establishment,"101 South Main Street, Havana",OPERATIONAL
auto_repair_station,car_repair,ChIJTZ0Ed8377IgRQtDjvKc9tO4,Headz Up Auto Detailing,30.6170901,-84.40973640000001,car_repair|point_of_interest|establishment,"417 S.E 4th Street Southeast, Havana",OPERATIONAL
auto_repair_station,car_repair,ChIJnRrypzj77IgR_nDuVVQoWTA,A1 Tires & Auto Repair,30.636949,-84.41711269999999,car_repair|point_of_interest|establishment,"6720 Florida Georgia Highway, Havana",OPERATIONAL
auto_repair_station,car_repair,ChIJRfXBe_Pw7IgR85KrDGAIdhk,Donalson Diesel,30.62256399999999,-84.42066349999999,car_repair|point_of_interest|establishment,"9115 Havana Highway, Havana",OPERATIONAL
auto_repair_station,car_repair,ChIJqXxoxxj77IgROHiTg_Qixek,Hall's Paint & Body Shop,30.64525609999999,-84.41643979999999,car_repair|point_of_interest|establishment,"7254 Florida Georgia Highway, Havana",OPERATIONAL
auto_repair_station,car_repair,ChIJE2y1D0b77IgRyaMGR4NJbIg,Errick's Tire Center,30.648083,-84.4164048,car_repair|store|point_of_interest|establishment,"30 Boyd Street, Havana",OPERATIONAL
auto_repair_station,car_repair,ChIJ3zYdbsz77IgRxeRdBf8AkyY,Tire Shop,30.6485786,-84.41667009999999,car_repair|store|point_of_interest|establishment,"2-22-3N-2W-0000-00142-0300, Havana",OPERATIONAL
auto_repair_station,car_repair,ChIJ9y_PbTTx7IgRifCbQIplm7A,ZEEK Window Tinting,30.60408889999999,-84.40431900000002,car_repair|point_of_interest|establishment,"54 Smith Creek Road, Havana",OPERATIONAL
auto_repair_station,car_repair,ChIJdZE9sun67IgRQYGZN-Mjoto,Commercial Building,30.6520504,-84.4175334,car_repair|point_of_interest|establishment,"30 Hinson Main Street, Havana",OPERATIONAL
auto_repair_station,car_repair,ChIJvYGiEb377IgRd6gcpIX9dqs,Tallahassee Scrap Metals,30.65702869999999,-84.3848393,general_contractor|car_repair|store|point_of_interest|establishment,"1659 Glades Road, Havana",OPERATIONAL
auto_repair_station,car_repair,ChIJlcmK_e_77IgRA1tiSYj_83k,Havana911,30.6068311,-84.4238726,car_repair|car_dealer|store|point_of_interest|establishment,"4395 Florida Georgia Highway, Havana",OPERATIONAL
auto_repair_station,car_repair,ChIJMY3FBP7x7IgRRnUBb2Ja308,Taylor Made Motorcycles,30.58539839999999,-84.425792,car_repair|point_of_interest|establishment,"600 Scotland Road, Havana",OPERATIONAL
auto_repair_station,car_repair,ChIJJ4oEBW_x7IgRMVZOlLtx5hU,"Fulford’s Welding, Repair & Accessories",30.5713862,-84.35609199999999,car_repair|point_of_interest|establishment,"4708 Dick Mitchell Drive, Tallahassee",OPERATIONAL
commercial_livestock,farm,ChIJW62msun67IgRQv08txKmiKA,Havana,30.62380689999999,-84.41462899999999,locality|political,Havana,
commercial_livestock,farm,ChIJfX_kMeb67IgRDsR5xbHihlc,Havana Public Library,30.6271664,-84.412154,library|point_of_interest|establishment,"203 5th Avenue East, Havana",OPERATIONAL
commercial_livestock,farm,ChIJla8kP-X67IgRapBEVvqUy0c,Healthy Start,30.6286611,-84.4080752,local_government_office|point_of_interest|establishment,"604 5th Avenue East, Havana",OPERATIONAL
commercial_livestock,farm,ChIJAwPgI8b67IgRlLb3IAJLDAg,Clinton Nurseries of Florida,30.6112098,-84.42524709999999,point_of_interest|establishment,"737 Salem Road, Havana",OPERATIONAL
commercial_livestock,farm,ChIJmyPyW-j67IgRvPYmelON5lY,Subway,30.625121,-84.4150007,meal_takeaway|restaurant|food|point_of_interest|establishment,"102 8th Avenue East, Havana",OPERATIONAL
commercial_livestock,farm,ChIJK7oqFuf67IgRF-eoKn2LfN0,Harveys Supermarkets,30.63177,-84.41512999999999,grocery_or_supermarket|store|food|point_of_interest|establishment,"102 1st Avenue East, Havana",OPERATIONAL
commercial_livestock,farm,ChIJ111OCfH77IgR55nfDsiqiuM,Bell Road Human Services,30.6744789,-84.36831880000001,point_of_interest|establishment,"182 Bell Road, Havana",OPERATIONAL
commercial_livestock,farm,ChIJA4kbL3_67IgRyzcKbrB-gDc,Metropolitan Cathedral Truth,30.5938008,-84.3917963,church|place_of_worship|point_of_interest|establishment,"1110 Rich Bay Road, Havana",OPERATIONAL
commercial_livestock,farm,ChIJMaPVten67IgRDKTmFaqkV3o,Capital City Bank,30.6237043,-84.4155966,bank|atm|finance|point_of_interest|establishment,"102 South Main Street, Havana",OPERATIONAL
commercial_livestock,farm,ChIJMcZsjOn67IgRJI8jeOu_nTo,New Life Tabernacle at Havana,30.621977,-84.41481399999999,church|place_of_worship|point_of_interest|establishment,"201 South Main Street, Havana",OPERATIONAL
commercial_livestock,farm,ChIJp0sxmFLl7IgRMTL9HAPwZJ8,Progress Energy,30.604304,-84.439724,point_of_interest|establishment,"310 Paradise Road, Havana",OPERATIONAL
commercial_livestock,farm,ChIJu_tpoMD67IgRYiTUMCCJfdA,Dollar General,30.6155862,-84.4211646,convenience_store|drugstore|grocery_or_supermarket|health|store|food|point_of_interest|establishment,"710 U.S. 27, Havana",OPERATIONAL
commercial_livestock,farm,ChIJ-2Pugin77IgReAiwwcNoYNs,Havana Sod,30.6384775,-84.4355087,point_of_interest|establishment,"2776 Salem Road, Havana",OPERATIONAL
commercial_livestock,farm,ChIJC19luuD67IgR_FU7612loSM,Corry Cabinet Co,30.63283659999999,-84.4158386,point_of_interest|establishment,"811 North Main Street, Havana",OPERATIONAL
commercial_livestock,farm,ChIJsVblk-j67IgRG3ybrxW5chA,American Legion Post 84,30.6257275,-84.41369809999999,point_of_interest|establishment,"7th Avenue East, Havana",OPERATIONAL
commercial_livestock,farm,ChIJoQHhaej67IgRBEMFcAFsyGk,The Herald,30.6254492,-84.4155775,point_of_interest|establishment,"103 7th Avenue West, Havana",OPERATIONAL
commercial_livestock,farm,ChIJ2TvqJef67IgReYjMGu6SaNE,Family Dollar,30.6318495,-84.4147797,store|point_of_interest|establishment,"104 1st Avenue East, Havana",OPERATIONAL
commercial_livestock,farm,ChIJm6HGfBj77IgR1Gck3lmhgcE,Hinson,30.647222,-84.41666699999999,locality|political,Hinson,
commercial_livestock,farm,ChIJK6iaMuj67IgRp1D9gzu-PBA,Havana Package,30.6241263,-84.41648289999999,liquor_store|food|store|point_of_interest|establishment,"302 9th Avenue West, Havana",OPERATIONAL
commercial_livestock,farm,ChIJYb3yLGf67IgRK5Rpmpn3blk,Tall Timbers Services,30.611917,-84.390873,point_of_interest|establishment,"287 Tall Timbers Road, Havana",OPERATIONAL
commercial_livestock,farm,ChIJ8y3DNRP77IgR6jtNNT3sIRo,Pyramid Excavation Inc,30.6606702,-84.4111523,general_contractor|point_of_interest|establishment,"8440 Florida Georgia Highway, Havana",OPERATIONAL
commercial_livestock,farm,ChIJu_tpoMD67IgRTQxxdTEnolY,Redbox,30.6155175,-84.4209687,movie_rental|store|point_of_interest|establishment,"710 Florida Georgia Highway, Havana",OPERATIONAL
commercial_livestock,farm,ChIJ69KsueD67IgRhVSByVfQFD4,Freedom Fabrication,30.63356190000001,-84.4159706,store|health|point_of_interest|establishment,"815 North Main Street, Havana",OPERATIONAL
commercial_livestock,farm,ChIJsUSWBuf67IgRmRMXwuRuJDY,Town of Havana City Hall,30.6307132,-84.4147016,local_government_office|point_of_interest|establishment,"711 North Main Street, Havana",OPERATIONAL
commercial_livestock,farm,ChIJ22cUvej67IgR1mFhjvA7VKg,First Presbyterian Church,30.6255965,-84.4131345,church|place_of_worship|point_of_interest|establishment,"213 1st Street Northeast, Havana",OPERATIONAL
commercial_livestock,farm,ChIJcYWOTorw7IgRKLplRUVXmmE,A Better Body Health & Safety,30.5724131,-84.39439109999999,store|health|point_of_interest|establishment,"1412 FL GA Hwy, Havana",OPERATIONAL
commercial_livestock,farm,ChIJHWPx3-j67IgRdXnNWS1_7Fw,Coinstar Kiosk - Bitcoin ATM,30.6238387,-84.413868,atm|finance|store|point_of_interest|establishment,"Harveys Supermarkets, 102 1st Street Northeast, Havana",OPERATIONAL
commercial_livestock,farm,ChIJk0o559z67IgRyUcq-eYYF2M,Inspection Services-North Fl,30.628602,-84.420282,point_of_interest|establishment,"221 Live Oak Lane, Havana",OPERATIONAL
commercial_livestock,farm,ChIJbwD2waD67IgRiUmhieksoGY,Ironwood Construction Co,30.5945166,-84.42112940000001,general_contractor|point_of_interest|establishment,"1297 Scotland Road, Havana",OPERATIONAL
commercial_livestock,farm,ChIJCXzOpev67IgRsWjaKS4iXxU,Antioch TB Church,30.6188201,-84.41356890000002,church|place_of_worship|point_of_interest|establishment,"326 Conyers Street Southeast, Havana",OPERATIONAL
commercial_livestock,farm,ChIJSe7WWXH87IgRW60fhCRmYKI,"Ironhorse Equipment Services, Inc.",30.6420955,-84.4164199,point_of_interest|establishment,"7092 Florida Georgia Highway, Havana",OPERATIONAL
commercial_livestock,farm,ChIJWfe8_H367IgRfcatiFCuACA,Barthlow Pools Inc,30.59763599999999,-84.39566599999999,general_contractor|point_of_interest|establishment,"1333 Rich Bay Road, Havana",OPERATIONAL
commercial_livestock,farm,ChIJVzFPYuj67IgR15qlz-14nFQ,"Buy-Rite Drugs Havana, FL",30.616192,-84.419648,pharmacy|drugstore|store|health|point_of_interest|establishment,"704 U.S. 27, Havana",OPERATIONAL
commercial_livestock,farm,ChIJg5nbP-j67IgRgDDcygM8fqA,Weezies Cottage,30.625416,-84.41606000000002,furniture_store|home_goods_store|store|point_of_interest|establishment,"201 1st Street Northwest, Havana",OPERATIONAL
commercial_livestock,farm,ChIJD2nrM2T67IgRV4H_PtpEV4E,Morningside Retriever Kennels,30.6082631,-84.3889889,point_of_interest|establishment,"124 South Quail Hollow Road, Havana",OPERATIONAL
commercial_livestock,farm,ChIJpwB5AOn67IgRo_KtTFdcQXY,Arrowhead Enterprises Inc,30.62380699999999,-84.41462899999999,general_contractor|point_of_interest|establishment,Havana,OPERATIONAL
commercial_livestock,farm,ChIJx8gD33787IgRS6Zdlsx9xLk,Little's Crossing,30.6860748,-84.39210969999999,point_of_interest|establishment,"5 Little Farm Road, Havana",OPERATIONAL
commercial_livestock,farm,ChIJ5zjoR-j67IgRVi5BgqZsOy0,D. Arthur McBride Portrait Studio and Gallery,30.665188,-84.41126299999999,art_gallery|point_of_interest|establishment,"8703 FL GA Hwy 8703, Florida Georgia Highway, Havana",OPERATIONAL
commercial_livestock,farm,ChIJpwB5AOn67IgRcF_3L4nb1nk,Ragged Glory Farm LLC,30.62380689999999,-84.41462899999999,point_of_interest|establishment,Havana,OPERATIONAL
commercial_livestock,farm,ChIJgfmQKcX77IgReD32DqVHXgQ,RENEGADE RUN RANCH,30.650361,-84.365101,point_of_interest|establishment,"3815 Concord Road, Havana",OPERATIONAL
commercial_livestock,farm,ChIJcxw-f8L67IgR_Ip_lR5zDQQ,H Schroeder Construction,30.6242019,-84.4173077,point_of_interest|establishment,"304 9th Avenue West # 15, Havana",OPERATIONAL
commercial_livestock,farm,ChIJm0RpSqH67IgRr13r8PVr1DY,Tri State Utility Products Inc,30.5969718,-84.42231799999999,point_of_interest|establishment,"160 Garrett Drive, Havana",OPERATIONAL
commercial_livestock,farm,ChIJd_Zdk6D67IgRBktxS9xmkJI,Big Bend Environmental Services,30.5949235,-84.4203164,point_of_interest|establishment,"1445 Scotland Road, Havana",OPERATIONAL
commercial_livestock,farm,ChIJsZ7luf3v7IgRFxtyuFuBi0k,Florida Bid Reporting Services,30.5859758,-84.4402178,point_of_interest|establishment,"319 Timber Run, Havana",OPERATIONAL
commercial_livestock,farm,ChIJG0Y7P-X67IgRWHKm-2WijEw,Neighborhood Medical Center,30.6286906,-84.4081059,health|point_of_interest|establishment,"604 5th Avenue East, Havana",OPERATIONAL
commercial_livestock,farm,ChIJHRpbPuH67IgREPwvt1TjG0g,John Oliver Heating & Air Inc.,30.633799,-84.413545,general_contractor|point_of_interest|establishment,"912 1st Street Northeast, Havana",OPERATIONAL
commercial_livestock,farm,ChIJE_87huj67IgR-yRX_B11UZc,"Landcorp, Inc",30.62615999999999,-84.4144149,real_estate_agency|point_of_interest|establishment,"107 East 6th Avenue East, Havana",OPERATIONAL
commercial_livestock,farm,ChIJ3SXvH-n67IgRl5zJJYYAs5s,Western Union,30.6319444,-84.4150507,finance|point_of_interest|establishment,"102 1st Avenue East, Havana",OPERATIONAL
commercial_livestock,farm,ChIJy03Viuj67IgROZkg0IB5Cio,Havana Masonic Lodge 167,30.62538080000001,-84.41447939999999,point_of_interest|establishment,"117 7th Avenue East, Havana",OPERATIONAL
commercial_livestock,farm,ChIJ-RTvZOj67IgR8s799HUkSy4,American Sportsman Taxidermy,30.626004,-84.415086,point_of_interest|establishment,"305 North Main Street, Havana",OPERATIONAL
commercial_livestock,farm,ChIJjdSqNuf67IgR_bq-qs3I0LM,El Jalisco Havana,30.6321593,-84.4156385,restaurant|food|point_of_interest|establishment,"809 North Main Street, Havana",OPERATIONAL
commercial_livestock,farm,ChIJpwB5AOn67IgRqN57dQyNN78,"Michelle B. Mays, CPA",30.62380689999999,-84.41462899999999,accounting|finance|point_of_interest|establishment,Havana,OPERATIONAL
commercial_livestock,farm,ChIJLxGm9-D67IgRKcpqBw_T1Bk,House-Comfort & Refuge Ministries,30.63534959999999,-84.4151402,point_of_interest|establishment,"8 Sweet Street, Havana",OPERATIONAL
commercial_livestock,farm,ChIJd2rjUOj67IgRFIO1gfkVwNc,Farm Bureau Insurance,30.62452750000001,-84.4150866,insurance_agency|point_of_interest|establishment,"105 North Main Street, Havana",OPERATIONAL
commercial_livestock,farm,ChIJucssOuj67IgR1L2794J9gsg,C&C ProArms,30.6249647,-84.4162113,store|point_of_interest|establishment,"209 2nd Street Northwest, Havana",OPERATIONAL
commercial_livestock,farm,ChIJoyFq1en67IgRejH9bGxoS30,"Dr. Joseph D. Miller, D.C.",30.62420179999999,-84.4173076,health|point_of_interest|establishment,"304 9th Avenue West, Havana",OPERATIONAL
commercial_livestock,farm,ChIJCRQWf8L67IgRvfvYOvAaeEM,The Havana Business Centre,30.6239994,-84.41738079999999,point_of_interest|establishment,"304 9th Avenue West #17, Havana",OPERATIONAL
commercial_livestock,farm,ChIJKUDp3cP67IgRdfwVvb1OIo4,United States Postal Service,30.62125529999999,-84.421075,post_office|finance|point_of_interest|establishment,"9080 Havana Highway, Havana",OPERATIONAL
excessive_light,casino,ChIJn24aWQD77IgRp_R5t7jM-38,Morris's Best Slots,30.6560849,-84.41383450000001,casino|point_of_interest|establishment,"8070 Florida Georgia Highway, Havana",OPERATIONAL
excessive_light,night_club,ChIJJ7QniJ377IgR4Kyb_p5bFp0,850 Cigar Lounge,30.625795,-84.41500599999999,night_club|bar|store|point_of_interest|establishment,"106 7th Avenue East, Havana",OPERATIONAL
excessive_noise,airport,ChIJHzjdqYr77IgRPQ0x4VG7Eak,Rutten Dusting Strip,30.6829555,-84.37355149999999,airport|point_of_interest|establishment,"1836 Concord Bainbridge Road, Havana",OPERATIONAL
excessive_noise,airport,ChIJA7KtSt3w7IgR6vtjr4AyCqM,Seminole VORTAC SZW 117.5,30.5562307,-84.37395099999999,airport|point_of_interest|establishment,Tallahassee,OPERATIONAL
auto_repair_station,car_repair,ChIJMYWDXchZ7IgRqsWL-z-2U5o,AutoZone Auto Parts,30.563285,-84.218566,car_repair|store|point_of_interest|establishment,"3331 Beech Ridge Court, Tallahassee",OPERATIONAL
auto_repair_station,car_repair,ChIJ5frka8hZ7IgRJocFB5GE7Ig,Mavis Tires & Brakes,30.5629873,-84.218458,car_repair|store|point_of_interest|establishment,"3335 Beech Ridge Court, Tallahassee",OPERATIONAL
auto_repair_station,car_repair,ChIJqWqMsXVX7IgRkI5jll5xNHI,GotBrakes Mobile Brake Service,30.58483099999999,-84.228747,car_repair|point_of_interest|establishment,"2737 Oakleigh Court, Tallahassee",OPERATIONAL
auto_repair_station,car_repair,ChIJPWHSFNdZ7IgRA1x4q7Zwab4,Hilbert Automotive LLC,30.579403,-84.2370828,car_repair|point_of_interest|establishment,"8200 Bridge Water Trail, Tallahassee",OPERATIONAL
auto_repair_station,car_repair,ChIJ457FqLdZ7IgRgcfsdyZ_7Xk,Take 5 Oil Change,30.5591747,-84.21848419999999,car_repair|point_of_interest|establishment,"6541 Thomasville Road, Tallahassee",OPERATIONAL
auto_repair_station,car_repair,ChIJ457FqLdZ7IgRkPAPyaYO_pI,Take 5 Oil Change,30.5591747,-84.2184654,car_repair|point_of_interest|establishment,"6535 Thomasville Road, Tallahassee",OPERATIONAL
auto_repair_station,car_repair,ChIJ1709p2ZZ7IgRt3BpScpjB_E,Auto Glass Now,30.5591747,-84.2184654,car_repair|point_of_interest|establishment,"6535 Thomasville Road, Tallahassee",CLOSED_TEMPORARILY
commercial_livestock,farm,ChIJU0sSh1GK7IgR-LH91HoH7us,Tallahassee,30.4381828,-84.28062349999999,locality|political,Tallahassee,
commercial_livestock,farm,ChIJ5T09FQRY7IgRMQPCxF1jQJI,WTNT-FM Tallahassee,30.57842399999999,-84.2632465,point_of_interest|establishment,Tallahassee,OPERATIONAL
commercial_livestock,farm,ChIJebBAytxZ7IgR7MexNLWpbF0,Lawton Chiles High School,30.5706336,-84.2110359,secondary_school|school|point_of_interest|establishment,"7200 Lawton Chiles Lane, Tallahassee",OPERATIONAL
commercial_livestock,farm,ChIJ9yjlc8dZ7IgRK_qCHLUvAgY,Target,30.5610264,-84.2148498,department_store|shoe_store|clothing_store|furniture_store|electronics_store|home_goods_store|store|point_of_interest|establishment,"3700 Bradfordville Road, Tallahassee",OPERATIONAL
commercial_livestock,farm,ChIJ1dsrd71X7IgRBlMPmufRDLY,Deer Lake Middle School,30.6080657,-84.24175389999999,school|point_of_interest|establishment,"9902 Deer Lake West, Tallahassee",OPERATIONAL
commercial_livestock,farm,ChIJfR10jrlY7IgRqaxj5Pb592c,Vicki Catsimpiris - State Farm Insurance Agent,30.56357749999999,-84.22142219999999,insurance_agency|point_of_interest|establishment,"3421 Bannerman Road Ste 203, Tallahassee",OPERATIONAL
commercial_livestock,farm,ChIJbdsEt5VW7IgRD9L33xqw4Pw,Tall Timbers,30.6563097,-84.2089118,point_of_interest|establishment,"13093 Henry Beadel Drive, Tallahassee",OPERATIONAL
commercial_livestock,farm,ChIJ7wMj0qZX7IgR5_JDQxcxRwQ,Mitchell Cemetery,30.6134111,-84.231079,cemetery|point_of_interest|establishment,Tallahassee,OPERATIONAL
commercial_livestock,farm,ChIJuVFwh9VZ7IgRDmb6YUJZYWA,Killearn Lakes Elementary School,30.583797,-84.2263239,primary_school|school|point_of_interest|establishment,"8037 Deer Lake South, Tallahassee",OPERATIONAL
commercial_livestock,farm,ChIJx-qTSG5Y7IgRgjYmLxX4FMA,Gage Gear,30.5546495,-84.2579186,store|point_of_interest|establishment,"6242 Covey Crossing, Tallahassee",OPERATIONAL
commercial_livestock,farm,ChIJw_OjVi707IgRpKzBoVx04LY,Dr. Rebecca Easterling MD,30.5625727,-84.2154192,doctor|health|point_of_interest|establishment,"6721 Thomasville Road STE 1, Tallahassee",OPERATIONAL
commercial_livestock,farm,ChIJHZyrWCRf7IgRSdf6F5St0Dc,Tom Paterson: Allstate Insurance,30.5877738,-84.2518345,insurance_agency|point_of_interest|establishment,"8511 Bull Headley Road, Tallahassee",OPERATIONAL
commercial_livestock,farm,ChIJC-a88KpZ7IgR2uKQLe8EhnM,Millennium Nail and Day Spa,30.5631718,-84.2209584,beauty_salon|hair_care|health|point_of_interest|establishment,"3427 Bannerman Road #201, Tallahassee",OPERATIONAL
commercial_livestock,farm,ChIJ5a2149v37IgRmWxn_9ObL_M,Hawks Rise Elementary School,30.5575657,-84.2747957,primary_school|school|point_of_interest|establishment,"205 Meadow Ridge Drive, Tallahassee",OPERATIONAL
commercial_livestock,farm,ChIJ9yjlc8dZ7IgReWLWhuU5hz0,CVS Pharmacy,30.5610264,-84.2148498,pharmacy|health|store|point_of_interest|establishment,"3700 Bradfordville Road, Tallahassee",OPERATIONAL
commercial_livestock,farm,ChIJg7OabghZ7IgRTNM8_TYnKDo,Papa Johns Pizza,30.56323239999999,-84.2131347,restaurant|food|point_of_interest|establishment,"6753 Thomasville Road #112, Tallahassee",OPERATIONAL
commercial_livestock,farm,ChIJJ7M3_bdZ7IgRjTMvrtQB_bg,Walgreens,30.5610942,-84.2183618,drugstore|convenience_store|clothing_store|health|food|store|point_of_interest|establishment,"6680 Thomasville Road, Tallahassee",OPERATIONAL
commercial_livestock,farm,ChIJJUS15LdZ7IgRbUSozcxpFDU,Firehouse Subs Bannerman Crossing,30.56068999999999,-84.21871,restaurant|food|point_of_interest|establishment,"6676 Thomasville Road Suite 2, Tallahassee",OPERATIONAL
commercial_livestock,farm,ChIJT1fN58ZZ7IgRSxMSF3DeuXQ,Truist,30.5642657,-84.2136008,bank|atm|finance|insurance_agency|point_of_interest|establishment,"6779 Thomasville Road, Tallahassee",OPERATIONAL
commercial_livestock,farm,ChIJb5-wA8hZ7IgRkqi3bkp90LY,Bradfordville,30.561111,-84.217778,locality|political,Bradfordville,
commercial_livestock,farm,ChIJnyFjwcdZ7IgRKtTqMVEXBus,Talquin Electric Co-Op,30.5626912,-84.2166379,point_of_interest|establishment,"Bradfordville Office, 6724 Thomasville Road, Tallahassee",OPERATIONAL
commercial_livestock,farm,ChIJS8vwCHD17IgR2Bg9OBLcWQ8,Killearn Pet Sitting,30.596711,-84.242436,point_of_interest|establishment,"9150 McDougal Court, Tallahassee",OPERATIONAL
commercial_livestock,farm,ChIJAQAAALDz7IgRLEEbjrr3WnU,Pet Stop of the Big Bend,30.6175406,-84.2309875,general_contractor|point_of_interest|store|establishment,"10524 Lake Iamonia Drive, Tallahassee",OPERATIONAL
commercial_livestock,farm,ChIJy_XI0QdX7IgRM6jD2Y4cU7E,Fain Builders Inc,30.6192152,-84.2260204,general_contractor|point_of_interest|establishment,"9995 Buck Point Road, Tallahassee",OPERATIONAL
commercial_livestock,farm,ChIJZfJRY3hX7IgR7B96iBrl5yg,W L Martin Home Designs,30.593168,-84.227199,general_contractor|point_of_interest|establishment,"2986 Saint Stevens Drive, Tallahassee",OPERATIONAL
commercial_livestock,farm,ChIJAQAAAIxf7IgRzf2gzyObkT8,Joan H. Raley,30.60946189999999,-84.23214779999999,point_of_interest|establishment,"2425 Bass Bay Drive, Tallahassee",OPERATIONAL
commercial_livestock,farm,ChIJWSF7NHxX7IgR5GmJGchUbSU,Dan's High-Tech Golf,30.587078,-84.221586,point_of_interest|store|establishment,"3401 Maple Nut Lane, Tallahassee",OPERATIONAL
